site_ID,LAT,LONG,ELEV,IGBP,Climate_class,MAP,NEE,NEE_day,NEE_night,MAT,SST,IAT,DRT,EVI,NDVI,LAI,GPP,SOC,nyear,TRS,TRS_p,SWC_use,Tmin1,Tmin2,Tmin3,Tmin4,Tmin5,Tmin6,Tmin7,Tmin8,Tmin9,Tmin10,Tmin11,Tmin12,TS_TA,TSmin_c,TSmin_c_gs,NEE_night_mod_p,NEE_night_mod_f,NEE_night_mod_fa
US-Uaf,64.8663,-147.8555,155,ENF,Dwc,263,-43.44210835,-203.1938797,159.7517714,-3.158701326,15.18247267,0.813147273,11.98598139,0.179164665,0.394520554,0.712008287,0.56765336,92,9,-0.035127135,0.510365237,YES,2.971428728,1.113186789,3.577655888,2.073479939,1.638754535,1.795311522,2.078754711,2.260366344,1.970109916,1.008205163,3.169376469,2.386886406,0.723623327,1.570474665,1.452301742,3.172900457,3.533606645,3.357859987
CA-Ca3,49.5346,-124.9004,171,ENF,Cfb,1676,-401.9615861,-911.5711569,509.6095708,12.11220326,6.648384293,0.790508783,7.023772043,0.476286339,0.839664297,3.910329136,1.358377202,134.0891517,13,-0.243719511,0.035192316,NO,1.154139209,2.22556777,1.977362657,2.092014599,1.978608131,1.931282258,1.908058763,2.174505615,1.906739902,1.852307701,2.177948666,1.86637361,0.898900516,1.741238383,1.816708481,3.752751107,4.013713546,2.577834181
CA-Cbo,44.3167,-79.9333,120,DBF,Dfb,876.34,-317.773761,-829.9273287,512.1535677,7.399306436,9.96851082,0.711017084,9.215556747,0.306903643,0.518906739,2.195338242,1.270836305,67.82142639,13,-0.069839854,0.000533816,YES,3.947838783,3.618608046,3.158241653,2.267252731,1.886007214,1.849743485,2.319194126,2.616923141,2.191428518,2.236483574,2.279999971,3.195750809,0.775142358,2.03910706,1.75081704,6.103792535,6.595946073,5.836775025
US-Ha1,42.5378,-72.1715,340,DBF,Dfb,1071,-249.878731,-730.1211945,480.2424635,8.333618946,9.826442988,0.824807467,8.063295217,0.407885428,0.696744261,2.523674626,1.316334653,76,17,-0.133216892,0.067933564,NO,2.858827925,2.58336997,2.528937769,1.920512843,1.79120872,1.809890223,2.041391897,2.313699627,1.797216105,1.43992672,2.127399302,2.380659246,0.691535523,1.474874713,1.372324246,4.634098078,4.882306703,4.066574595
US-Ha2,42.5393,-72.1779,360,ENF,Dfb,1071,-451.4456613,-789.6537293,338.208068,8.380819942,9.992757385,0.454056189,8.221450739,0.407885428,0.696744261,2.580073167,1.319673153,114.5196877,14,-0.035192583,0.450574642,NO,2.858827925,2.58336997,2.528937769,1.920512843,1.79120872,1.809890223,2.041391897,2.313699627,1.797216105,1.43992672,2.127399302,2.380659246,0.599653138,1.278912246,1.126070058,3.364721466,3.753120854,3.607295806
US-Var,38.4133,-120.9508,129,GRA,Csa,559,-2.382595006,-272.8074046,270.4248096,16.06884679,6.689476718,0.635297252,14.50298739,0.275641348,0.479888525,1.064990867,0.945197162,42,19,-0.003581033,0.92476708,YES,1.117728949,1.569084144,0.8872527,0.606666827,0.828278339,0.85662986,1.259341288,1.603004193,1.656703329,1.89318676,1.307619166,0.798974407,0.989188394,1.185745895,0.886280223,3.644734526,3.893992881,3.881653723
US-Ton,38.4309,-120.966,177,WSA,Csa,559,-87.78523895,-518.0675461,430.2823071,16.5034199,6.711133234,0.635855937,11.68929128,0.244297268,0.462846084,1.022669113,0.965097332,36,16,0.014446721,0.71680776,YES,1.115750933,1.607985282,0.906520128,0.59890101,0.870256364,0.872527444,1.267765784,1.614725828,1.693699622,1.864395666,1.319413972,0.797948742,0.710055755,0.859752714,0.754420969,3.063618411,3.254059792,3.289719467
US-Los,46.0827,-89.9792,480,WET,Dfb,828,-97.09165032,-364.569071,267.4774207,5.136668083,11.57599535,0.866939282,11.27276168,0.289120765,0.503046447,1.670840976,1.235168488,128.0277475,14,-0.005963527,0.889861894,NO,2.401172066,4.541025352,3.037802124,2.00571425,2.155091715,1.795604181,2.26989007,2.843955946,2.021392012,2.441391897,1.704688621,2.884322309,0.898671639,2.254321591,2.08517847,3.485919552,4.338204171,4.284592545
US-Wkg,31.7365,-109.9419,1531,GRA,Bsk,407,-34.94999402,-113.5659558,78.61596176,17.46696084,7.024189303,0.548858371,10.31235518,0.130761566,0.216930055,0.295155393,0.308057877,65.55297065,17,0.038144086,0.54352076,YES,0.413772851,0.705274749,0.093260027,0.203003693,0.927545846,0.64234364,1.002930355,1.216776657,1.392966771,1.697069573,0.821684945,0.616336977,1.159296693,0.940282949,1.489829191,1.027818634,1.105007798,1.169621935
US-SRM,31.8214,-110.8661,1120,WSA,Bsk,380,-2.048663385,-128.0577189,126.0090555,19.1929747,7.268810499,0.527757959,12.23006917,0.15647541,0.262902186,0.387477148,0.359231676,69.17284495,17,-0.109916588,0.001184557,YES,0.647472537,0.923150158,0.264981753,0.449450678,1.082564163,0.926373827,1.247472334,1.549523592,1.720659113,1.994285941,1.02615391,0.827765536,1.04704181,1.10461633,1.72194637,1.510880284,1.607675831,1.330452464
US-CMW,31.6637,-110.1777,1199,DBF,Bsh,288,-369.0413717,-671.4651119,302.4237402,17.00916756,7.454600939,0.417830572,18.14666131,0.165610018,0.310798907,0.530073127,0.45274127,12,17,-0.057165056,0.025062844,YES,0.495164818,0.692161179,0.137729059,0.269304025,0.967765772,0.735824239,0.979340577,1.303296804,1.530255842,1.758754754,0.890329635,0.698314977,0.808469166,0.704597161,1.011606094,2.962049177,3.255239095,3.072333002
US-Ho1,45.2041,-68.7402,60,ENF,Dfb,1070,-301.4686432,-771.2518037,469.7831605,6.378704367,10.5055833,0.559052322,11.92953566,0.388709654,0.73863989,2.628793461,1.28289551,78.46355864,18,-0.134127451,0.359294787,NO,2.959560585,3.179707003,3.050403023,2.582051325,2.067985392,2.276629925,2.527545691,2.523296595,1.968131804,1.758534718,2.101318645,2.49626379,0.514457398,1.264340297,1.155424475,4.591386632,5.074958095,4.346383535
US-Ho2,45.2091,-68.747,61,ENF,Dfb,1064,-310.7730113,-806.8876368,496.1146255,7.302299432,10.31562874,1.166349421,11.96921374,0.391009107,0.730902367,2.734186514,1.265205969,79.26513582,18,-0.08900439,0.200579682,NO,2.97010994,3.153040648,3.080293083,2.587765598,2.059633827,2.27509141,2.537069607,2.516849756,1.968424749,1.784688544,2.097509098,2.522857094,0.704361575,1.734686036,1.578279074,4.898465308,5.624881434,4.887720812
US-GLE,41.3665,-106.2399,3197,ENF,Dfc,1200,-42.16740981,-303.7482654,261.5808555,0.332191423,9.374343379,0.758923001,6.965512273,0.193030601,0.393832605,0.447440588,0.425221199,34,13,-0.064922887,0.083742791,NO,1.880146337,3.306813049,2.388791418,2.47978034,2.737655687,2.711941338,2.376849842,3.097802162,2.692893744,3.361318684,2.491208553,2.585274601,1.014914238,2.715781586,2.783198757,2.761521377,3.598097563,3.003300807
US-Me2,44.4526,-121.5589,1253,ENF,Csb,523,-352.5980349,-794.3348432,441.7368083,7.987600512,7.889475541,0.60097062,7.803709045,0.303453005,0.599737887,1.735374796,1.189038531,61.18021908,10,-0.152337722,0.091740161,NO,1.333479881,1.965348005,1.663003731,1.312673974,0.944395566,1.314578772,1.747326088,2.191941452,1.916776538,1.654432201,2.138095284,1.686080623,0.96182792,1.592477015,1.570355136,3.474002175,3.976107005,3.130143584
US-NR1,40.0329,-105.5464,3050,ENF,Dfc,800,-196.5633546,-442.4785174,245.9151628,2.345043828,8.8085458,0.510132141,7.424043558,0.262152095,0.511645173,1.289853762,0.90748113,41,19,-0.122800969,0.00240179,YES,1.788498259,3.006153965,2.383882856,2.324175787,2.553846264,2.575824118,2.194651985,2.786739922,2.549157476,3.158681297,2.475018167,2.54197793,0.643321849,1.626457452,1.664288506,2.495327791,3.169052371,2.583270845
US-WCr,45.8059,-90.0799,520,DBF,Dfb,787,-264.6097699,-594.7452109,330.135441,5.290872409,11.56472237,0.944811536,8.538840913,0.324777007,0.510299999,2.007769682,1.173234792,139.6122077,14,-0.071915697,0.21686045,YES,2.357729387,4.256263638,2.995311546,2.000659347,1.989450574,1.649084091,2.19516468,2.738461781,2.069597149,2.387326002,1.804249048,2.916263866,0.646543454,1.581852669,1.420585079,4.05118288,4.39237725,3.965802494
US-UMB,45.5598,-84.7138,234,DBF,Dfb,803,-205.2807624,-642.3135711,437.0328087,7.161236439,10.61522024,1.072063384,7.403141505,0.325870384,0.505593966,2.09945159,1.698150834,81.89252768,11,-0.019674119,0.358170864,YES,3.666007519,3.806007338,3.227326059,2.2810256,1.726080656,1.686519885,2.195311546,2.426300192,2.09706974,2.399853373,2.008717942,3.481538534,0.715064196,1.847353952,1.509288924,5.330101879,6.03068085,5.854238829
US-MMS,39.3232,-86.4131,275,DBF,Cfa,1032,-357.6526654,-761.0851419,403.4324765,12.46218875,10.09743104,0.709031044,7.952342885,0.40109581,0.656686701,2.604296201,1.574815798,35,23,-0.06693713,0.024480761,YES,2.07956028,2.273040342,1.79956038,0.83282057,1.019853544,1.565494657,2.527618933,2.366886425,2.04468894,1.792380857,2.306446934,2.035970688,0.656597069,1.239016318,1.274156596,4.480912632,4.719175758,4.333371043
US-PFa,45.9459,-90.2723,470,MF,Dfb,823,7.975747813,-304.5182918,312.4940397,5.432131327,11.70020063,1.220741534,8.595218812,0.324410383,0.566614754,1.798080465,1.207535629,139.6122077,13,-0.018890604,0.587631274,NO,2.401172018,4.325201416,3.023955917,2.015091634,2.09098897,1.805494547,2.272454357,2.825567579,2.027839136,2.496410322,1.766666627,2.854871464,1.107590743,2.760274331,2.562983984,5.496593332,6.240215368,5.945284476
US-Syv,46.242,-89.3477,540,MF,Dfb,826,-150.4379914,-563.1934906,412.7554992,4.556907988,11.58489278,1.035114274,8.032082431,0.269279599,0.511117668,1.79716639,1.188754308,142.5774866,10,-0.104061905,0.086831725,YES,2.445495129,4.150329399,2.955311584,1.972454166,2.068205166,1.721465182,2.161025715,2.574432135,1.747912288,2.266813231,1.68783884,2.867179489,0.68614894,1.636377298,1.477176076,6.772866678,7.769950855,6.662841751
US-Whs,31.7438,-110.0522,1370,OSH,Bsk,320,15.04390492,-31.53611515,46.58002008,17.12019327,7.40634181,0.482012043,15.08684879,0.116662295,0.196230055,0.254113346,0.260624101,7,15,-0.137406379,0.108621157,YES,0.490842497,0.680659306,0.055384748,0.207252781,0.93450563,0.698461223,1.016483581,1.203003955,1.456410384,1.717948937,0.877142954,0.706446886,1.299008978,1.087329282,1.827983447,0.704006012,0.748364345,0.582141395
US-ICt,68.6063,-149.3041,930,OSH,ET,318,-2.683328755,-59.82856871,57.14523995,-5.477109569,11.79047789,0.888020401,6.775430009,0.312571204,0.530333508,0.446757683,0.291911265,128,11,-0.330957681,0.021145669,NO,4.072307873,1.452893662,3.267912197,1.668864799,1.471941328,1.993333364,2.137362719,2.3210989,2.104468918,1.310476232,3.455091238,2.994066143,0.430038395,1.012375511,0.963978452,0.77977862,0.972135891,0.706596321
US-ICh,68.6068,-149.2958,940,OSH,ET,318,14.82423916,-43.06028159,57.88452075,-6.61624533,12.63194625,1.234770613,7.410667804,0.302821244,0.518109845,0.422070537,0.283587571,128,11,-0.157539707,0.008732491,NO,4.072307873,1.452893662,3.267912197,1.668864799,1.471941328,1.993333364,2.137362719,2.3210989,2.104468918,1.310476232,3.455091238,2.994066143,0.43952134,1.034699799,0.982568573,1.153642612,1.31389817,1.125474647
US-ICs,68.6058,-149.311,920,WET,ET,318,81.02792002,-22.66316454,103.6910846,-6.541218561,12.79600992,1.117733952,8.30155097,0.312571204,0.530333508,0.456655293,0.296282896,128,10,-0.077093665,0.338960606,NO,4.072307873,1.452893662,3.267912197,1.668864799,1.471941328,1.993333364,2.137362719,2.3210989,2.104468918,1.310476232,3.455091238,2.994066143,0.387037068,0.911143874,0.867874435,1.360581874,1.604017138,1.500207711
US-SRG,31.7894,-110.8277,1291,GRA,Bsk,420,-41.93787059,-229.9079057,187.9700351,18.9440829,7.147606884,0.522614019,11.76401733,0.170891803,0.282312022,0.430438758,0.410712256,25,16,-0.073002361,0.160685595,YES,0.686959743,0.926886439,0.263370046,0.501025695,1.107472396,0.951354992,1.248717833,1.573479486,1.756849694,1.975238132,1.049304056,0.850402951,1.025509447,1.101658776,1.1587888,1.689567115,1.804198326,1.657850749
US-IB2,41.8406,-88.241,226.5,GRA,Dfa,930.25,-215.1902247,-646.9615609,431.7713362,9.223713815,10.87413983,0.854793119,10.08162265,0.316391682,0.492161368,1.241499099,1.108806244,98.88151067,12,-0.042105639,0.013173963,NO,2.379633474,3.428351688,2.56249094,1.539780211,1.416190577,1.539707184,2.327545643,2.428571177,2.002637172,2.045348001,1.767912102,2.35963378,0.773776501,1.663477744,1.506747768,5.095384107,5.604780236,5.260243243
US-Kon,39.0824,-96.5603,417,GRA,Cfa,867,-163.0045133,-678.2595531,515.2550399,13.14715999,10.79727627,1.048358726,11.96305799,0.295653832,0.469030839,1.138025609,0.907693169,55,11,-0.070916122,0.017773209,NO,1.55750916,2.863150311,1.887545776,1.774945116,1.971502018,1.955384231,2.600293064,3.239632893,2.71934042,3.228351641,2.13904767,2.174871874,0.858325069,2.01073907,2.099894566,6.625070646,7.336704743,6.321606807
US-MOz,38.7441,-92.2,219.4,DBF,Cfa,986,-364.6826506,-784.6655951,419.9829445,13.53309483,10.43983222,1.073030186,9.664558529,0.37915337,0.653207285,2.527330935,1.512128684,45,14,-0.032528061,0.554951599,YES,1.525934076,2.577655697,1.913992691,1.281098986,1.387985468,1.670842099,2.497216463,2.723370218,2.360146666,2.579560423,2.086446857,1.992747235,0.693191459,1.420869012,1.518388772,4.387978024,4.496035248,4.279369603
US-NC2,35.803,-76.6685,5,ENF,Cfa,1320,-531.9003252,-1343.799462,811.8991368,15.99332423,8.014473303,0.459475052,10.13608993,0.410731876,0.736830782,4.284643559,1.74012571,134,11,-0.085010549,0.47140866,NO,1.75113554,1.370769191,1.585567951,0.938827562,1.02293005,0.996483469,1.711575699,1.469962978,1.821684647,1.316849613,2.407399607,1.613186812,0.684034707,1.026415347,1.046183797,4.348290768,4.739659937,4.336331573
US-Bar,44.0646,-71.2881,272,DBF,Dfb,1245.77,-215.1216784,-609.3136051,394.1919267,7.411330361,10.17443587,0.595564093,9.882681381,0.392827687,0.650909652,2.282541168,1.281952609,69.83918195,12,-0.226509783,0.003673387,YES,3.098900986,2.942344379,2.84080596,2.214139271,1.755091596,2.019047379,2.232161283,2.382637262,1.772307634,1.65135529,2.361465216,2.696556568,0.613525308,1.429862288,1.272052112,4.20312987,4.414684675,3.309523305
CA-Oas,53.6289,-106.1978,530,DBF,Dfc,428.53,-129.5741244,-467.1110554,337.536931,1.91686947,12.81411863,0.936864253,8.176467625,0.262314469,0.453749083,1.680347375,0.919973438,87.87283153,14,-0.018529912,0.589929317,YES,1.016630089,4.263516903,3.801391983,3.034065914,3.205421162,2.751648426,2.679487228,3.227692461,2.593113422,3.183956099,2.936776352,3.030622435,0.547461396,1.629807288,1.58270905,5.435961113,6.191687016,6.012737461
CA-TP4,42.7102,-80.3574,184,ENF,Dfb,1036,-167.4882297,-725.6012988,558.1130692,9.30552856,10.23628024,0.798726291,7.571919737,0.366053467,0.650123722,2.512979926,1.421344028,89.60770803,14,-0.027580299,0.39651934,YES,3.506959534,3.276996374,2.664468908,2.054578733,1.687179565,1.7924541,2.211648512,2.442710543,2.147838926,1.900512838,2.255604362,2.90146513,0.821712854,1.975015435,1.695689,5.566916487,6.259943869,5.973921675
CA-TP3,42.7068,-80.3483,184,ENF,Dfb,1036,-503.708318,-964.2781577,460.5698396,9.055563984,10.23685783,0.876344188,7.812248344,0.340102007,0.610566058,2.23446073,1.450330333,89.37391468,10,-0.02308294,0.416257604,YES,3.548205137,3.250696039,2.709523869,2.010842443,1.689450526,1.750842524,2.242344427,2.462197542,2.137362432,1.861391997,2.280293036,2.880366373,0.830503895,1.994836882,1.688704385,4.385337829,5.019035237,4.827155976
CA-Man,55.8796,-98.4808,259,ENF,Dfc,520,0.58618865,-229.6753193,230.2615079,-1.181531772,14.64952035,1.40322214,9.824147741,0.189097814,0.445356831,0.992595988,0.702415992,187.351898,12,-0.055790268,0.488063075,NO,2.049964046,4.766081333,3.174578285,3.754505301,3.350109911,3.204395723,2.815384626,2.918901205,2.304029369,2.954651976,4.253333187,3.807325602,0.723244463,2.371835651,2.298560923,2.900845682,3.703538562,3.257797654
CA-LP1,55.1119,-122.8414,751,ENF,Dfb,570,-175.8770067,-300.7352603,124.8582535,2.886093156,10.3319541,0.61019,9.123298658,0.19590457,0.421291408,0.812797082,0.703043089,70.65000153,10,-0.018045016,0.905830187,YES,0.919706845,2.509670305,3.246007395,2.445640945,2.584029245,2.281684828,2.231941557,2.700000143,2.593333292,2.583882761,3.016556883,2.862710714,0.821972356,2.053229743,2.166159627,1.306497658,1.639981381,1.577113857
CA-Ca1,49.8673,-125.3336,300,ENF,Cfb,1369,-373.7580182,-1083.818877,710.0608591,8.065497168,6.161820245,0.450077744,5.357694171,0.364140255,0.74399927,2.501828196,1.3166279,119.4553249,12,-0.019808286,0.638487585,YES,1.171501827,2.294432211,1.968498158,2.122710609,2.012014699,2.065494442,1.967619038,2.287838793,1.87648344,1.942710686,2.179413939,1.869597077,0.614607851,1.21683724,1.268271216,5.984475486,7.450874388,7.266023108
CA-Gro,48.2167,-82.1556,340,MF,Dfb,831,-118.1875763,-447.8413266,329.6537504,3.747624006,12.3953469,0.981259806,9.202684815,0.295093625,0.557405282,1.848811726,1.030441712,79.39664123,8,0.065791457,0.659548955,YES,3.340146923,3.865494823,3.21010952,2.683662939,2.2080585,2.036336875,2.288645267,2.520879412,2.059780264,2.652234364,2.642637157,4.013553524,0.725239304,2.025928168,1.648792361,4.362692746,5.058155101,5.637711744
CA-Obs,53.9872,-105.1178,628.94,ENF,Dfc,405.6,-54.98450569,-316.5949258,261.6104201,1.211340753,12.99609806,1.106668749,8.733588777,0.209253102,0.479189416,1.175868382,0.791648697,119.9366052,11,-0.093125181,0.044201854,YES,1.020366442,4.349231052,3.527618933,3.242270994,3.242417574,2.674432468,2.584175682,3.171281958,2.503516436,3.141611767,3.159706926,3.048644829,0.40167216,1.193812339,1.160148086,2.729183662,3.163828532,2.839829044
CA-Ojp,53.9163,-104.692,579,ENF,Dfc,430.5,-38.11573117,-234.6029708,196.4872397,1.443179156,13.13012679,0.984442341,9.265129909,0.221184153,0.488610747,1.134186483,0.752606287,67.77522834,11,-0.026605268,0.465321783,YES,1.102564669,4.277729511,3.513992405,3.160586119,3.269377279,2.678754568,2.654798222,3.058827829,2.420512819,3.145274687,3.141025543,3.068497896,0.641195294,1.896438824,1.823616188,2.751749074,3.541990498,3.374243191
US-Jo2,32.5849,-106.6032,1469,OSH,Bwk,282.3,-174.9616979,-245.9539192,70.99222131,17.64086811,8.187068443,0.457703509,12.32449965,0.112643534,0.170639891,0.214181153,0.211922598,9,10,-0.006434519,0.917774248,YES,0.740219796,0.940366316,0.311941361,0.57875464,1.268571496,0.980659091,1.263003874,1.278388166,1.567692327,1.740879059,1.061098886,1.030256402,1.414750434,1.504567211,1.114322887,0.33904693,0.360236493,0.357662788
US-MtB,32.416,-110.7256,2573,ENF,Csb,790,-495.3536272,-738.7744569,243.4208297,9.890111772,6.731203351,0.420454566,5.563098661,0.286684153,0.53827377,1.443510073,0.699776772,5,9,-0.344881733,0.080010611,NO,0.608131874,0.969523811,0.217728925,0.40842489,1.100952363,0.848205149,1.220586157,1.54432261,1.612454295,1.965640855,0.88556776,0.879926741,1.02059593,1.042833476,1.063964507,1.585275797,1.651260466,1.14407562
US-LL1,31.2792,-84.5329,165,SAV,Cfa,1310,-203.9650578,-874.3477007,670.3826429,19.41596748,6.815460414,0.63693578,10.01652579,0.371546266,0.697580328,1.874862913,1.550562043,20,12,-0.039362096,0.07610438,YES,1.580219841,1.179853392,1.396410179,1.00073278,1.50659256,1.252527571,1.704176402,1.442636991,1.773699355,1.517875457,2.462490988,1.501465297,0.938394833,1.432512951,1.20789407,4.204611524,4.514314765,4.30470308
US-BZB,64.6955,-148.3208,100,WET,Dfd,274,14.09593446,-150.513523,164.6094574,-1.552445775,15.06864268,1.542979811,12.98144579,0.210736947,0.438115487,0.612551445,0.584887241,78,9,-0.051100561,0.339120947,NO,3.016556787,1.043663239,3.517362595,1.937582541,1.599194193,1.712894034,2.110915804,2.257655716,1.988717961,0.945933998,3.168498516,2.342564011,0.493900431,1.055363946,0.990802157,2.301821425,2.423634326,2.303979062
US-BZF,64.7013,-148.3121,95,WET,Dfd,274,11.25606263,-190.7741644,202.030227,-1.128288118,14.96944303,1.588988487,12.02349113,0.224255579,0.452690773,0.891778017,0.675360604,91,8,-0.038577649,0.580836834,NO,3.016556787,1.043663239,3.517362595,1.937582541,1.599194193,1.712894034,2.110915804,2.257655716,1.988717961,0.945933998,3.168498516,2.342564011,0.487401686,1.041477461,1.022005907,2.693716047,2.934461265,2.821016542
US-KL2,42.4768,-85.4468,258.3,GRA,Dfa,1027,-263.1196683,-650.348139,387.2284707,9.320215088,10.52969109,0.880711625,10.20397413,0.273933523,0.477414962,1.086014637,1.116277267,29,13,-0.046879361,0.044190964,YES,3.051355219,3.167765474,2.563150167,1.632014608,1.363516474,1.594871783,2.227252817,2.421904612,2.017289066,2.043296862,2.090915728,2.527985144,0.921068194,2.049477892,1.88034858,5.284194881,5.853621662,5.359716154
US-Ro4,44.6781,-93.0723,274,GRA,Dfa,879,-281.7066242,-556.4454711,274.7388469,7.471009355,12.1251548,1.056804783,11.44813229,0.284919057,0.449071513,1.084826337,0.986806608,87,10,-0.050009222,0.393546492,NO,2.264468575,4.330769348,3.002490997,1.816703224,1.905640697,1.680879378,2.174651766,2.776703072,2.063589573,2.244615364,1.462857175,2.251575184,0.715885159,1.668903958,1.639074984,4.935964213,5.939440635,5.472010477
US-KM4,42.4423,-85.3301,246.3,GRA,Dfa,1027,-6.013849094,-527.2991009,521.2852518,9.198884433,10.44266836,0.969532712,10.70435516,0.303425461,0.483937085,1.207404036,1.129306441,370,12,-0.048108184,0.292149941,YES,3.0130404,3.140219545,2.53897438,1.576923108,1.341611505,1.599120831,2.242344427,2.452234459,2.056043863,2.035530972,2.003223467,2.443003511,0.685344518,1.510172092,1.182806338,5.608909713,6.148746039,5.808634399
US-MBP,47.5051,-93.4893,416,WET,Dfb,780,-221.4190361,-284.4550232,63.03598711,4.106576485,12.6311142,1.243680234,11.44332292,0.286788686,0.499722445,1.732175536,1.120459415,29,12,-0.043566591,0.562340869,NO,2.340659094,4.7994874,3.332967234,2.462490845,2.895091581,2.484762144,2.845274878,3.3139925,2.061172295,2.871868134,1.839047647,2.797142649,0.488467396,1.385780226,1.319638607,1.320163877,1.475345201,1.392916627
US-Myb,38.0499,-121.765,-4,WET,Csa,338,-412.3568795,-813.0054664,400.648587,15.6288017,5.37172437,0.460911935,10.47096704,0.346545173,0.571359199,1.531901298,1.609581318,29,10,0.040045279,0.78921228,NO,1.150036621,1.520732594,0.943882895,0.819633734,0.947692251,0.900952268,1.289230824,1.555457568,1.769084311,1.863809657,1.389743567,0.826080644,0.525469319,0.655800464,0.740852826,3.464158469,3.520385464,3.62639176
US-NC4,35.7879,-75.9038,1,WET,Cfa,1311,38.72256305,-772.8963711,811.6189342,17.03805014,7.827075402,0.64665654,7.710634506,0.358008743,0.713713113,2.489853787,1.910429839,250,10,-0.125323558,0.387874082,NO,1.608058548,1.394652057,1.590989089,1.049597263,0.798461449,0.775970066,1.537948132,1.22190485,1.576629639,1.200512624,2.23304038,1.666300344,0.637126421,0.884228705,0.796331168,5.844780671,6.12851384,5.546423052
US-Tw1,38.1074,-121.6469,-5,WET,Csa,421,-269.4963399,-804.593327,535.0969872,14.98563396,5.740588992,0.821253785,13.8781895,0.289704007,0.502984882,0.80457039,1.199211935,231,11,-0.049129443,0.383566962,NO,1.134798408,1.478095269,0.949816895,0.756849861,0.916336703,0.899560285,1.323076916,1.555384326,1.718388295,1.846520138,1.396703339,0.752600753,0.331852506,0.40729727,0.494396914,4.414908393,4.546552677,4.437449824
US-Ced,39.8379,-74.3791,58,CSH,Cfa,1138,-80.63069699,-715.3321751,634.7014781,12.03055022,9.123327547,0.710138449,9.755186839,0.346821676,0.695976503,2.359323618,1.572713445,28,9,-0.101151942,0.462614209,NO,2.360219765,2.191355228,2.085421276,1.394798517,1.379780245,1.351941371,1.796264052,1.834725809,1.915458059,1.408571124,2.208937693,2.131062222,0.726198724,1.334906687,1.182547578,5.659756889,6.186366366,5.488916699
US-Oho,41.5545,-83.8438,230,DBF,Dfa,849,-783.7337678,-1155.963362,372.2295946,10.50362975,10.21148895,0.838409997,8.987854462,0.347966849,0.583467758,2.266636233,1.528514405,82.90563217,10,-0.055997571,0.18565256,NO,3.03604393,3.057142782,2.564029264,1.42117219,1.331867957,1.682124853,2.337729406,2.516556787,2.159853363,2.056850052,2.361098909,2.638827848,0.647526966,1.465747294,1.342292753,4.501131513,4.890072136,4.535983466
US-Slt,39.9138,-74.596,30,DBF,Dfa,1138,8.654024974,-548.1964882,556.8505131,12.34162363,9.353904736,0.690736037,10.74805851,0.369865392,0.669517304,2.395795285,1.826786867,68.21561707,10,-0.097666743,0.512879908,NO,2.464249039,2.286153889,2.071428585,1.451868105,1.426593566,1.396556711,1.809157681,1.932307696,1.85575099,1.354652143,2.199120855,2.196410227,0.68386059,1.279061474,1.170617346,5.607230235,6.201438516,5.531455051
US-Wrc,45.8205,-121.9519,371,ENF,Csb,2452,-273.8253424,-478.6874388,204.8620964,9.251996846,7.199579357,0.85700916,8.877967461,0.346910786,0.738012248,2.309415026,1.418262682,104.0639298,9,-0.068712274,0.228598895,NO,1.233553123,2.01311357,1.667399263,1.329597068,1.053846264,1.447912169,1.834725428,2.167985439,1.921098971,1.505421281,2.14205122,1.786813188,0.687919749,1.152467197,1.125377523,2.162198298,2.294387557,2.123655082
AU-Tum,-35.6566,148.1517,1200,EBF,Cfb,1159.01,-592.4246117,-1615.866923,1023.442311,9.629790551,5.168112565,0.364033256,7.90279622,0.34468561,0.743610928,4.142596048,2.453599358,123.3451004,10,-0.014979218,0.856975338,YES,1.055677629,1.473772979,1.540732551,1.312673926,2.081684971,0.987472522,0.77670331,1.250769234,1.223003626,1.421685004,0.83238107,1.344395638,0.722525199,0.921276977,0.815278736,5.07568703,5.581418347,5.513671252
BE-Bra,51.3076,4.5198,16,MF,Cfb,750,-127.3054403,-717.9413978,590.6359575,11.06744889,5.989069363,0.658867855,6.476109134,0.355564299,0.676826958,2.083897559,1.31514362,79.58034515,14,-0.156562179,0.0840314,NO,0.757289386,0.563003629,1.102710652,0.145641105,0.809963107,0.667472589,1.568571305,1.49223423,1.568058729,1.073919559,0.594871771,1.311648321,0.480305369,0.466511975,0.543221854,4.575978113,4.765622344,4.377072573
BE-Vie,50.3049,5.9981,493,MF,Cfb,1062,-473.5766883,-1016.560357,542.9836689,8.621173025,6.503911235,0.688557917,6.428238307,0.336372344,0.661785714,2.153339467,1.277346381,129.024826,24,-0.002115344,0.973613991,YES,1.164395642,0.822124565,1.286959696,0.096483612,0.848717916,0.891868174,1.793772888,1.844835281,1.855457711,1.073479819,0.641904807,1.605714273,0.608823355,0.706525013,0.754861429,4.194314409,4.561014268,4.55373709
CH-Lae,47.4783,8.3644,689,MF,Cfb,1100,-281.3603971,-763.4822415,482.1218444,8.435283457,7.345802546,0.646902874,7.700939764,0.399858135,0.675382083,2.643183946,1.456677995,79.23197937,13,-0.111858057,0.040516435,YES,2.334432268,2.074798512,1.861831498,0.413333285,0.847985327,0.649523711,1.957728839,2.01890111,1.921977901,1.470109844,1.102271032,2.343003654,0.669296722,1.059490965,0.994556798,5.538281752,5.61818835,5.026681693
CZ-BK1,49.5021,18.5369,875,ENF,Dfb,1316,-831.1536211,-1243.682583,412.5289617,6.898828533,7.7457895,0.611665496,7.49569374,0.294044991,0.65640601,2.027447423,1.056874515,235.81073,15,0.05089334,0.342257553,YES,2.720512772,2.3594872,2.381904793,1.104468894,1.555311322,1.300512862,1.784175634,1.731941271,2.265274763,1.639560366,0.668131864,2.637435913,0.577288353,1.065516394,0.952457106,3.230095279,3.514377157,3.688928503
CZ-wet,49.0247,14.7704,426,WET,Dfb,604,45.16225865,-393.6715058,438.8337645,8.773438956,8.051445027,0.511500952,7.601922598,0.378948881,0.583876679,1.414455643,1.109243858,76.55177307,11,-0.034223262,0.575614761,NO,2.400659323,1.936043954,2.007326031,0.450329661,1.256043887,0.967179406,1.742417645,1.898461533,2.296996355,1.76249094,0.690695965,2.189084196,0.752249514,1.228531836,0.961848344,4.899389881,5.394302327,5.219625646
DE-Gri,50.95,13.5126,385,GRA,Cfb,901,-82.98169582,-622.791514,539.8098182,8.645978946,7.635822666,0.745509483,7.18827651,0.344752095,0.654280327,2.112168381,1.205532528,89,15,0.042472581,0.577702942,NO,2.060805893,1.628278375,2.007838821,0.484249043,1.182197809,1.154139185,1.81728909,1.775311446,1.928791046,1.519267368,0.742197824,1.886080599,0.842767441,1.277245415,0.929034135,5.0276065,5.373078832,5.589330771
DE-Hai,51.0792,10.4522,430,DBF,Cfb,720,-523.220309,-958.2498575,435.0295485,8.539259071,7.083103044,0.667382709,7.113624734,0.377752844,0.660711008,2.362488601,1.154354218,79,18,-0.117689039,0.002687022,YES,1.805201483,1.325128174,1.892600751,0.481465226,1.232967067,1.224541926,1.89978025,1.848424864,2.044908524,1.547252798,0.784102523,1.833553123,0.675027571,1.008037051,1.149370083,3.651662031,3.815750997,3.332988132
DE-Tha,50.9626,13.5651,385,ENF,Cfb,843,-469.5504666,-873.981823,404.4313564,9.238064722,7.528276437,0.780417682,7.006525043,0.325320401,0.712576138,2.275937819,1.13339836,79,24,-0.03506286,0.008283451,YES,2.064981651,1.538608027,2.062564087,0.564395452,1.21501832,1.186739922,1.824029183,1.765421367,1.930842471,1.536630058,0.692893827,1.917362642,0.720979537,1.099462973,1.070165735,3.372497676,3.709266984,3.572662826
DK-Sor,55.4859,11.6446,40,DBF,Cfb,660,-214.9413359,-901.3978457,686.4565098,8.724131361,6.228371899,0.747318183,5.463460104,0.391590842,0.618299999,2.182250724,1.372439507,91.67423248,21,-0.041091422,0.010769929,YES,1.200952387,1.291355371,1.769010973,0.944249082,1.345714355,1.606300545,1.594578505,1.575750947,1.394358873,1.501025772,1.071282029,1.21890111,0.574785059,0.790975129,0.869454867,6.517270646,6.961608738,6.717280944
FI-Hyy,61.8474,24.2948,181,ENF,Dfc,709,-231.3673457,-531.3267941,299.9594485,4.556371253,9.107593573,0.699740744,6.34521312,0.249323985,0.509124758,1.581809895,0.998414665,44.4856987,24,0.001224219,0.922363741,YES,3.755384636,2.35809536,3.570109653,2.381465244,2.11706953,2.439780426,1.698974061,1.984908223,1.319780231,2.467619085,2.177435875,2.838974333,0.73612677,1.785696113,1.529693237,3.741469134,4.323098695,4.331202058
FI-Sod,67.3624,26.6386,180,ENF,Dfc,500,94.62147054,-100.025275,194.6467455,0.809693063,10.67584675,0.692900398,6.275989871,0.182884262,0.419415254,0.569659095,0.412223604,133.773407,10,0.015475367,0.264104718,YES,3.354432011,3.019927359,3.832380915,1.663882709,2.333186865,2.736996508,1.851208758,1.904908323,1.667985368,2.636556768,2.873040342,2.563150311,0.831410935,2.10885002,1.911542451,2.108359561,2.687703302,2.768398126
FR-Pue,43.7413,3.5957,270,EBF,Csa,883,-347.7997115,-722.2144624,374.4147509,14.1251148,6.62018549,0.624695979,8.09473956,0.353426047,0.673119672,2.054986306,1.455031302,62,13,0.036390138,0.542969162,YES,1.381391931,1.744468832,0.865567648,0.047032855,0.864615405,0.75391978,1.856702805,2.391501522,1.907838845,1.052307534,0.803882802,1.646959782,0.833702076,1.064094931,1.09664009,2.697560778,2.826247047,2.941314481
IT-Lav,45.9562,11.2813,1353,ENF,Dfb,1291,-1965.123074,-2039.389731,74.26665676,7.300331977,6.419510557,0.520229842,6.40150528,0.328251913,0.730599088,2.361024736,1.310848685,87.52999878,14,-0.245149646,0.000428735,YES,2.727326059,2.206520176,1.443223429,0.25128212,0.922857201,0.801538444,1.96095264,2.235311079,2.333699656,1.466300392,0.511428565,2.232600689,0.695467662,1.106549349,0.988476241,0.924946014,1.04228446,0.817986292
IT-MBo,46.0147,11.0458,1550,GRA,Dfb,1214,-31.0220478,-599.647158,568.6251102,5.433585321,6.912407568,0.596982558,7.06930626,0.328628169,0.470285714,1.152973481,1.03443889,78.88999939,15,-0.007051379,0.814911336,YES,2.705641031,2.264249086,1.509303999,0.197948796,0.936923099,0.755750847,2.082344437,2.176923275,2.397509289,1.578315163,0.538901085,2.230183077,0.947698909,1.530059349,0.941915821,5.932180646,6.459181739,6.416423265
IT-Noe,40.6062,8.1517,25,CSH,Csa,588,-192.514179,-613.8743705,421.3601915,16.40172341,5.591569956,0.294897086,5.557876454,0.270374433,0.598900825,1.200000013,1.777521427,77.93000031,8,0.001878085,0.979441028,NO,1.285836577,1.449938893,0.87362655,0.311111331,0.786691129,0.944688797,1.45873034,1.971673091,1.901465019,1.081685026,0.683150033,1.295115948,1.275224179,1.492406837,1.236794622,2.12883689,2.322712304,2.328113783
IT-Ren,46.5869,11.4337,1730,ENF,Dfc,809.3,-667.7461006,-975.5803578,307.8342572,4.864174405,6.426559296,0.527077846,7.727546782,0.255343169,0.538880874,1.514455648,1.045365711,102.0999985,18,-0.123603207,0.1300879,NO,2.801172161,2.520366335,1.8523808,0.276630041,1.029890144,0.844908488,2.048205137,2.001025796,2.411062241,1.695824122,0.815750933,2.48732605,0.838980044,1.453151348,1.282642531,2.853896803,3.084460513,2.632247483
IT-SRo,43.7279,10.2844,6,ENF,Csa,920,-383.7959534,-1091.438382,707.6424288,15.22225475,6.333658284,0.304792933,6.857488639,0.305731352,0.668520697,1.932113476,1.646214594,76.83000183,10,-0.07050565,0.657595164,NO,1.56373629,1.58782053,1.085988984,0.317124538,1.028022036,1.017216042,1.913827717,2.269139469,2.211080551,1.409890503,0.500640959,1.427747309,0.807468074,1.098979857,1.085429533,4.070811173,4.18288968,3.874720007
NL-Loo,52.1666,5.7436,25,ENF,Cfb,786,-473.0386957,-921.2763121,448.2376163,10.14284234,6.322663229,0.570326097,6.429886564,0.328382332,0.706885792,1.978865537,1.257766527,57.43982315,14,-0.064752241,0.024612583,YES,0.875531125,0.61260072,1.195018387,0.201025575,0.841904843,0.77091552,1.496996403,1.308424664,1.492747259,1.146007419,0.749597061,1.378827763,0.500716579,0.503620599,0.517290651,3.603642787,3.754876963,3.631187717
RU-Fyo,56.4615,32.9221,265,ENF,Dfb,711,93.58150935,-468.3428511,561.9243605,5.410705775,9.678299937,0.541014704,7.298062248,0.277071111,0.573706666,1.702197823,1.002290032,56.61304092,19,-0.00111023,0.977206251,YES,2.882124662,2.260439444,2.955311298,2.71714282,1.680879164,2.603369761,1.852527165,1.637802291,1.575604415,1.661611652,1.273333311,2.734725237,0.488583195,1.05187366,1.115757827,3.844273523,4.552757027,4.547120801
ZA-Kru,-25.0197,31.4969,359,SAV,Bsh,547,-44.58128253,-483.6706167,439.0893342,21.86088545,3.57475076,0.235585702,9.770026827,0.272310565,0.458581603,1.007516049,1.220618941,46.12785339,10,-0.220019495,0.00921146,YES,1.4060812,1.219633913,1.597142625,1.041757607,1.385787773,0.84315021,1.544102502,1.013992453,1.674065948,1.476044989,1.264688897,1.185641265,0.901286373,1.175584573,1.186226632,3.473346222,3.582092389,2.759236777
IT-Tor,45.8444,7.5781,2160,GRA,Dfc,920,-75.53374206,-420.5142459,344.9805038,3.310864305,6.315578372,0.537762669,6.507725501,0.309815978,0.501211019,0.863677961,0.658618475,85.83999634,12,-0.147212802,0.083424669,YES,2.460219765,2.518901062,1.684175754,0.138388263,0.835164821,0.773406589,1.867326069,2.231355381,1.920952368,1.265274715,0.846959782,2.172674084,1.078141908,1.681434061,1.791149475,3.204941296,3.736909433,2.870765681
BE-Dor,50.311876,4.968113,250,GRA,Cfb,581.795,-73.93497488,-952.1268688,878.191894,10.05555058,6.31819766,0.645511253,7.146400697,0.437024081,0.625409191,1.532662419,1.121253437,83.44987488,11,0.037734018,0.298628503,YES,0.915604365,0.755384612,1.126007318,0.095164683,0.787765551,0.853919208,1.715458155,1.780806041,1.628571129,0.987399435,0.574285686,1.397875452,0.816025155,0.858066882,0.92796066,6.618650574,7.0487539,7.299942955
CH-Fru,47.115833,8.537778,982,GRA,Dfb,1651,-205.8362246,-913.1101635,707.273939,7.887832053,6.916652478,0.569815724,7.242974937,0.421713019,0.612599811,1.805032045,1.261186234,82.63198853,13,-0.032815979,0.551776747,YES,2.505714273,2.299194193,1.898095226,0.353479809,0.863370049,0.682270992,1.980073452,2.025714254,1.905201411,1.446227026,1.105934072,2.421025705,0.84217156,1.367567338,1.101624746,7.878408034,8.340108131,8.043990469
CZ-RAJ,49.443724,16.696513,648,ENF,Dfb,681,-538.0235289,-972.3663713,434.3428424,8.15253628,8.092157229,0.598391025,7.492602327,0.268176685,0.606306193,1.704940557,1.088211305,124.493309,8,-0.248617275,0.473781112,NO,2.535677624,2.014065981,2.230989075,0.779194117,1.464908433,1.18102572,1.841465402,1.835311317,2.173333216,1.596923041,0.718754578,2.348278332,0.556082947,0.960166498,0.92364144,3.251177384,3.450258867,2.742352269
CZ-Stn,49.035975,17.9699,564,DBF,Dfb,685,-247.1211623,-808.8814177,561.7602554,9.060822301,8.402555238,0.685778564,6.037611498,0.361866788,0.645472079,2.487648711,1.184802245,84.73412323,11,-0.096107822,0.029943618,YES,2.70161171,2.285640907,2.261318731,0.897948718,1.475750947,1.323003674,1.86227119,1.917729044,2.401977921,1.727912235,0.639633691,2.547032976,0.652922536,1.199300724,1.205262592,4.329804199,4.609465748,4.105291691
DE-Obe,50.78666,13.72129,743,ENF,Dfb,996,-259.4892565,-879.9364412,620.4471847,6.751198998,7.265623963,0.808769022,6.951430723,0.273952468,0.674467824,2.0255261,1.094211583,89,10,0.061689152,0.301440513,YES,2.093626308,1.634725451,2.00820508,0.516410315,1.209377122,1.1902565,1.789597034,1.797216105,1.929010868,1.532380843,0.739267397,1.948351598,0.728228193,1.115914102,1.015867523,5.183395609,5.590264887,5.951805851
DE-RuR,50.6219,6.3041,514.7,GRA,Cfb,1033,-118.0197554,-806.5497241,688.5299688,8.428473484,6.398218057,0.636003571,6.467437449,0.46418511,0.666992278,2.155718239,1.244777955,70,10,0.019133458,0.255602883,YES,1.196483564,0.82747252,1.387179494,0.152380943,0.878461492,0.98153826,1.880952454,1.813699579,1.821391845,1.153553176,0.647326016,1.655091548,0.752851362,0.903141253,0.721942851,5.710522149,6.095104077,6.179881533
CH-Aws,46.583194,9.790417,1942,GRA,Dfc,918,-373.6362865,-870.0464829,496.4101964,3.75588457,6.826939183,0.387274951,7.549877439,0.219919175,0.462501456,0.905306507,0.778520269,98.25754547,8,-0.075509249,0.35327682,YES,2.787032604,2.693040371,1.976043868,0.332087919,0.998754597,0.947985339,2.261538553,2.301172209,2.184615374,1.654798508,0.989670384,2.572454023,0.672135997,1.215400769,1.047964915,4.973688889,5.680128797,5.247978025
ES-LJu,36.926594,-2.752115,1613,OSH,Csb,400,-3.287897603,-70.39745319,67.10955559,11.86229047,6.354642788,0.459238306,6.9825901,0.156800547,0.364750365,0.375114364,0.553631658,37.08029556,12,-0.036571131,0.734732796,YES,1.601684976,1.824835181,0.906153882,0.615677679,0.95076915,1.150769234,1.571721721,1.868791294,2.143296528,1.388791227,1.825860715,1.746007323,1.107517129,1.623837823,1.57239137,0.438919957,0.40183075,0.379375641
FR-FBn,43.24079,5.67865,433,MF,Csa,700,-558.6841398,-1020.341932,461.657792,14.01897824,6.217717835,0.62768066,6.853163514,0.312534426,0.65173388,1.834675236,1.6588242,62,11,0.093504717,0.220260031,NO,1.252674103,1.614212489,0.935311377,0.115897574,0.960952437,0.809010899,1.781831527,2.202783918,1.918168736,1.08864454,0.71413902,1.516703176,0.979054931,1.216502659,1.271860159,2.645675003,2.670624755,3.00788556
FR-Fon,48.476358,2.780096,104,DBF,Cfb,720,-603.6863279,-1098.412695,494.7263671,11.73160231,6.337848907,0.743590554,7.775586756,0.407020255,0.657636131,2.475663358,1.686357806,45,16,-0.095131925,0.115847,NO,1.003589761,0.93010987,0.994871759,-0.028351681,0.700952458,0.651648462,1.820732594,2.008718014,1.755457878,0.73128221,0.344102532,1.340659332,0.612377856,0.62532828,0.827563333,4.729434256,4.913185173,4.541215693
GF-Guy,5.2788,-52.9249,48,EBF,Am,3041,-242.0914696,-1811.298048,1569.206579,25.66107468,0.771770947,0.197749849,4.099093513,0.406132482,0.652618429,3.473833533,3.28673569,23.96599197,13,-0.163512014,0.001385122,YES,1.059780049,1.250842237,1.117069221,1.367032838,1.16417551,1.244909024,1.105054927,1.287692404,1.31010983,1.290475392,1.280073595,1.183663607,0.311303822,0.380332296,0.379910598,8.063196572,8.32574998,7.824291369
IL-Yat,31.345045,35.051989,652,ENF,Csa,285,-135.9926526,-365.3372314,229.3445787,18.43318997,5.86446692,0.372876544,9.824962402,0.199712568,0.345882878,0.591109075,0.593305676,20.85048294,15,-0.034560881,0.670937149,NO,1.094066024,0.743369925,0.310109988,1.432381129,1.161611891,1.329743361,1.253479695,1.38761878,1.349230385,1.567179537,1.513406467,1.033626521,1.159694909,1.369969215,1.08080524,1.414434801,1.4330883,1.380544773
SE-Deg,64.182,19.5565,270,GRA,Dfc,523,-53.96449781,-117.1829184,63.21842064,2.574950296,9.239131039,0.779989531,7.734297508,0.234077802,0.448740659,0.864820523,0.751320513,81.22222137,20,0.065345712,0.169112517,YES,3.238314915,2.996923113,3.677069807,1.699120927,2.489230824,2.441025591,1.665494728,1.9271065,1.482344246,2.3421978,2.041758275,2.097435856,0.86610511,2.027986745,1.727123657,1.359181112,1.599812801,1.790950972
IT-SR2,43.732022,10.29091,13,ENF,Csa,920,-225.850467,-1225.285127,999.4346603,15.70978459,6.185564403,0.37104273,4.935218686,0.363377049,0.775849726,2.545288236,1.812138068,76.83000183,8,-0.057930691,0.560926054,YES,1.56373629,1.58782053,1.085988984,0.317124538,1.028022036,1.017216042,1.913827717,2.269139469,2.211080551,1.409890503,0.500640959,1.427747309,0.752759698,1.024520685,1.063319071,6.580587296,6.89176149,6.480047902
CH-Dav,46.8153,9.8559,1639,ENF,Dfc,1062,-83.56311443,-565.4874225,481.9243081,4.736062045,6.663715634,0.498014174,7.223789887,0.203118785,0.428652486,0.978957008,0.806983242,94.02565002,15,-0.157654208,0.008669773,NO,2.849889994,2.576337099,1.967692447,0.419194198,0.992454195,1.035531175,2.298974419,2.2616117,2.208131886,1.652893758,1.129230785,2.587106228,0.728378877,1.334089517,1.137496189,4.616347862,5.307003528,4.435748213