"site_ID","LAT","LONG","ELEV","IGBP","Climate_class","MAP","NEE","NEE_day","NEE_night","MATA","SSTA","IATA","DRTA","EVI","NDVI","LAI","GPP","SOC","TAS_tot","TAS_totp","TAS","TASp"
"US-Uaf",64.8663,-147.8555,155,"ENF","Dwc",263,-82.4098785848934,-227.616982291394,145.207103706501,-2.98242513312722,15.1682248231281,0.764873017055125,11.8988759496096,0.138765740865376,0.305327436168788,0.670178301866125,0.629977960955799,92,-0.00612861809474113,0.730422297493718,0.0116729887681271,0.555937129918382
"CA-Ca3",49.5346,-124.9004,171,"ENF","Cfb",1676,-455.379272064802,-959.058466780295,503.679194715493,12.3304552756665,6.67563836786394,0.93605259403359,7.00047781096128,0.483764765512812,0.85744878269744,2.77160019655826,1.44717717497676,128.729441314436,-0.0357383165080094,0.00609423053817541,-0.0303033347243122,0.0103117883317506
"CA-Cbo",44.3167,-79.9333,120,"DBF","Dfb",876.34,-300.199848448426,-801.286378847198,501.086530398772,7.35925840562685,10.0567792588981,0.718274965343145,9.29275605685464,0.306037317543821,0.526104282298632,2.21825544270992,1.26107559415306,67.8214263916016,0.011584509534612,0.165769859699591,-0.0092075556165439,0.263398792578843
"US-Ha1",42.5378,-72.1715,340,"DBF","Dfb",1071,-255.803522299046,-728.151618969721,472.348096670675,8.2974453235681,9.80788057960202,0.876678292570585,8.10571834127547,0.403562789555175,0.704857136150235,2.48065787418768,1.30998248936802,76,0.0326894544474087,0.0261893620316853,0.0584772532079491,1.51593760772923e-05
"US-Ha2",42.5393,-72.1779,360,"ENF","Dfb",1071,-456.612319351924,-777.356309420832,320.743990068909,8.43907282155701,9.89675258261986,0.453299541819657,8.09572215282013,0.403562789555175,0.704857136150235,2.55671206501928,1.31751084286925,110.968812901361,-0.0169421996186461,0.284922038598946,0.00911161001779456,0.598301873135971
"US-Var",38.4133,-120.9508,129,"GRA","Csa",559,1.64906657902231,-263.339095509817,264.988162088839,16.0559375266963,6.71603565406507,0.620708747030054,14.5005042461328,0.272531467822636,0.47574838228951,1.07455556791319,0.980143759988571,42,-0.113945971244626,1.36898005278688e-06,0.0202751755861164,0.171133919770151
"US-Ton",38.4309,-120.966,177,"WSA","Csa",559,-84.6129620112258,-506.98591472212,422.372952710894,16.5282453976011,6.73374212043556,0.613127176763326,11.7137604111652,0.242400506411767,0.460178900708436,1.03399091637775,0.993069105378879,36,-0.0225209959260528,0.0218148219175217,0.0103299635191956,0.178597723330725
"US-Los",46.0827,-89.9792,480,"WET","Dfb",828,-117.433639043415,-385.021874940024,267.58823589661,5.36522281925666,11.3020797468289,1.0157027431399,11.1512904845288,0.286608488108726,0.508468292594242,1.77880646882053,1.22605060174205,123.228302047386,0.0225817718852772,0.051230364701126,0.0271958751564707,0.0151708587565112
"US-Wkg",31.7365,-109.9419,1531,"GRA","Bsk",407,-35.4361337700021,-111.110564125889,75.6744303558872,17.511085831915,7.05644724256866,0.545548007366159,10.3176792355922,0.130699385324435,0.217351349119165,0.292958322588121,0.309915430274057,66.5281647470214,-0.176656302200158,0.00184770150213326,0.0136140900894824,0.651038982893558
"US-SRM",31.8214,-110.8661,1120,"WSA","Bsk",380,2.03561792041462,-123.12621010535,125.161828025765,19.2913015739938,7.3281085994924,0.577868190401718,12.3191787308821,0.156863848719954,0.264012355237655,0.386180139526337,0.364387015876334,69.8134485028087,-0.1358079876858,9.05651559975981e-11,-0.0296088217198914,0.084269310388152
"US-CMW",31.6637,-110.1777,1199,"DBF","Bsh",288,-369.464200716224,-670.418407669486,300.954206953262,17.0168684470823,7.43436510752022,0.398825587697862,18.122716661306,0.165785472859125,0.312382748061759,0.524831264939185,0.452409511124914,12,-0.0832901379329113,9.86210710233087e-17,-0.0477621515721965,1.45785402398727e-08
"US-Ho1",45.2041,-68.7402,60,"ENF","Dfb",1070,-299.357336404256,-764.269802694207,464.912466289951,6.61769827178531,10.3894591738177,0.611917349046751,11.8398848333476,0.38629961278147,0.741637895710001,2.28759384411156,1.2763492036023,78.2454072577412,0.0207577801329238,0.15157423451309,0.0462159680450285,0.000248944988277831
"US-Ho2",45.2091,-68.747,61,"ENF","Dfb",1064,-324.212943556417,-818.803083262039,494.590139705622,7.69243464477616,10.4029092117817,1.16021966967335,12.0846137054206,0.388248776323485,0.733546110231947,2.40223919768634,1.28013658333766,78.972893426846,0.0212833811297406,0.0108725800197316,0.0221970889536066,0.00406488405945492
"US-GLE",41.3665,-106.2399,3197,"ENF","Dfc",1200,-42.1674098081792,-303.74826535394,261.580855545761,0.332191423096627,9.37434337922775,0.75892300061711,6.96551227255155,0.19259468702435,0.394892674484259,0.437811560046835,0.412233439218874,34,0.0106144661254542,0.300454761411887,0.0220132509974456,0.0974290020432554
"US-Me2",44.4526,-121.5589,1253,"ENF","Csb",523,-352.598034904017,-794.334843163624,441.736808259608,7.96091504048442,7.89864891939212,0.597719394793707,7.78935665986664,0.307782037271677,0.613216335402696,1.92881377807634,1.22255615035829,62.5595933183088,-0.0326802599293371,0.0137051902077613,-0.0286608277910567,0.0275073448667399
"US-NR1",40.0329,-105.5464,3050,"ENF","Dfc",800,-196.978231574533,-441.815823357289,244.837591782756,2.38039954436845,8.79652290713141,0.529362658342584,7.41998027791418,0.260572977824396,0.513702302610155,1.28948856696981,0.916444570729847,41,-0.0364009515913365,0.00209119927643946,0.0211236845739126,0.0636340861668393
"US-WCr",45.8059,-90.0799,520,"DBF","Dfb",787,-279.449879830527,-615.761801766874,336.311921936347,5.25320701878075,11.6162168594292,0.905934512325543,8.5221571727508,0.314963571918326,0.509575196835433,1.87511823846096,1.1605769742107,133.741992787136,0.0166950571098453,0.31748120843717,0.0459116882852496,0.0020430372241504
"US-UMB",45.5598,-84.7138,234,"DBF","Dfb",803,-222.070158376689,-652.223817873483,430.153659496794,7.14666806092529,10.5814384833498,0.94486991907631,7.38299038654482,0.324729545576914,0.516272400014923,2.12886593098486,1.68618118277874,81.3574314255783,-0.00229819874361511,0.785357411157894,0.0138383048066299,0.170458911256725
"US-MMS",39.3232,-86.4131,275,"DBF","Cfa",1032,-362.721084655538,-767.544919660513,404.823835004975,12.4799725167441,9.99122154421021,0.722759136978528,7.96366122221873,0.397461544346683,0.658723739603568,2.35535341726433,1.5498247075054,35,-0.0252984110462703,0.00713886489066079,-0.0085741650335354,0.252859109377288
"US-PFa",45.9459,-90.2723,470,"MF","Dfb",823,5.43055146062493,-312.911104455532,318.341655916157,5.75627147552502,11.5264183402542,1.24042261438011,8.67869466339043,0.318687832903812,0.571651959815896,1.85520053387414,1.19569368035885,133.741992787136,-0.0201609940770122,0.180108027952201,0.0231756240294802,0.248859163603162
"US-Syv",46.242,-89.3477,540,"MF","Dfb",826,-137.448386267437,-555.987407250306,418.539020982869,4.5960791753273,11.5954027312467,0.997032232795844,8.02176506287872,0.269013311491147,0.526037184085669,1.86648920751807,1.1863850450208,136.433186414095,-0.0273411625490899,0.234882648605198,0.0138912689131504,0.501303649349958
"US-Whs",31.7438,-110.0522,1370,"OSH","Bsk",320,15.9964070075305,-28.995835298706,44.9922423062365,17.1486577242603,7.39092625755831,0.442867115889557,15.0780040053702,0.116940293796712,0.197097685124003,0.253273051307468,0.264389196033975,7,-0.1771844821744,0.000963059533270775,0.00231779410072832,0.964640361604803
"US-ICt",68.6063,-149.3041,930,"OSH","ET",318,-2.78557041035211,-71.1991653594605,68.4135949491085,-5.46855087016162,11.9086137021756,0.850603751493354,6.80457350683604,0.100842193763491,0.173642229577809,0.738432515753046,0.546040890951644,128,-0.177660410804582,0.0610386003495171,-0.183017632221281,0.0314956023259005
"US-ICh",68.6068,-149.2958,940,"OSH","ET",318,9.13126007274838,-51.5939878957017,60.7252479684498,-6.72227740285918,12.7357222104726,1.18693018478249,7.38724373443969,0.0995435118851559,0.172997456219807,0.690528112414545,0.538789719132594,128,0.0320050097439103,0.228827339552698,0.00928620581124932,0.69990871561483
"US-ICs",68.6058,-149.311,920,"WET","ET",318,82.0125714683597,-27.1550171381426,109.167588606502,-6.53046964990086,12.9340777001579,1.30793692024931,8.27389388621167,0.100842193763491,0.173642229577809,0.763480373584811,0.581711018032912,128,0.0637347451153445,0.20245393050759,0.0321551509777484,0.540594722711726
"US-SRG",31.7894,-110.8277,1291,"GRA","Bsk",420,-36.8785175429861,-226.216585812787,189.338068269801,18.9902663875562,7.18886643613711,0.535970302560669,11.7968486809869,0.171173770915011,0.283310399193134,0.428213064752866,0.416332844745107,25,-0.0886635115274311,2.08659941807135e-08,-0.00306380205177603,0.720037123768109
"US-IB2",41.8406,-88.241,226.5,"GRA","Dfa",930.25,-205.231668550004,-635.207145349067,429.975476799063,9.05986855528352,10.913591156998,0.98865834638271,10.1388701363178,0.310126466584292,0.486912829940522,1.23416281203187,1.09620459798158,96.7760966207711,-0.0274230365320822,0.00416091966479996,-0.0237982340824863,0.0192229761430631
"US-Kon",39.0824,-96.5603,417,"GRA","Cfa",867,-167.403101191744,-686.268258499818,518.865157308074,12.9724541103807,10.7884603889836,1.1133106352026,11.9674716398881,0.291339014144935,0.464675108759893,1.12033214202857,0.895653983126464,55,-0.0287697223520573,0.00418489816080935,-0.00908832759565626,0.254871937524273
"US-MOz",38.7441,-92.2,219.4,"DBF","Cfa",986,-351.783780508019,-764.264466489245,412.480685981226,13.6013677377156,10.36737614374,1.02098978627484,9.67622945697368,0.374392750793528,0.650998563211805,2.50168066426332,1.50145676256468,45,-0.00502462001053196,0.773198961474198,0.0568748766408418,1.7202181499272e-05
"US-NC2",35.803,-76.6685,5,"ENF","Cfa",1320,-384.90875878803,-1172.5547109489,787.645952160867,16.0910711073935,7.99146930423251,0.432484858044764,10.2808308239762,0.408015094608534,0.736809984982715,4.32742858664516,1.77079085842252,134,-0.0203545784446544,0.0341405831212141,-0.000427216570601236,0.969600783228949
"US-Bar",44.0646,-71.2881,272,"DBF","Dfb",1245.77,-183.175889860034,-592.589530345926,409.413640485892,7.52986439001788,10.1449619932176,0.583123730176216,9.80362671633294,0.387836521406084,0.65511303091792,2.26231966819736,1.27286049885849,70.4181949568177,-0.0528974455427406,0.0117594845902036,-0.0373148973657172,0.144058604544838
"CA-Oas",53.6289,-106.1978,530,"DBF","Dfc",428.53,-129.574124354087,-467.111055351719,337.536930997632,1.9188985627874,12.8136266491799,0.937533834331656,8.17684663139846,0.254007802691961,0.44585919701684,1.74565207143055,0.910214576994226,86.7849666058708,-0.0105769954775695,0.519031700393188,-0.00343843580888964,0.801763477820912
"CA-TP4",42.7102,-80.3574,184,"ENF","Dfb",1036,-192.620774766243,-736.553422350244,543.932647584,9.34218745775812,10.1754412319105,0.784144302268558,7.4687748261825,0.366995349588922,0.658590351307381,2.40391076450772,1.4573320487945,88.3594858032117,-0.0176545568544906,0.0359808669655713,0.0111164511744715,0.196079399309181
"CA-TP3",42.7068,-80.3483,184,"ENF","Dfb",1036,-547.841828058759,-996.82518102302,448.983352964261,9.19332656016215,10.1200527604757,0.783601790326769,7.75400058668231,0.340775011955561,0.619047329495565,2.20527476095026,1.47551587292668,88.1473023372228,-0.074761026710303,7.51831607899254e-28,-0.0779226366481834,2.03217774880826e-23
"CA-Man",55.8796,-98.4808,259,"ENF","Dfc",520,-2.64712046777689,-227.229725756444,224.582605288668,-1.18050736032259,14.667151708872,1.29438905540596,9.76886613807042,0.189257876734803,0.453116642485438,1.00883598846677,0.723940764386019,177.069030205347,0.0339669517065023,0.087251691429285,0.0290118800983769,0.136060300539556
"CA-LP1",55.1119,-122.8414,751,"ENF","Dfb",570,-181.721007541168,-317.294472933927,135.57346539276,3.1681494512506,10.0231777303835,0.738260628995649,9.02026357500684,0.198464359316541,0.43322947710749,0.881869438090437,0.752706147985198,70.6500015258789,-0.035716323852824,0.0486228474923882,0.0129435395186439,0.585938456690889
"CA-Ca1",49.8673,-125.3336,300,"ENF","Cfb",1369,-373.758018249995,-1083.81887737918,710.06085912919,8.06550019586459,6.16181589678569,0.450077379849812,5.357712276357,0.367616226634762,0.761267813468333,2.14091943762517,1.3692235689597,115.448241627793,0.0256844199562972,0.018261252019563,0.0377257863544212,0.00186670550716863
"CA-Gro",48.2167,-82.1556,340,"MF","Dfb",831,-113.466320934151,-453.877799414088,340.411478479938,3.57907558656431,12.389301349359,1.06041532671307,9.19250708961711,0.291918607237608,0.565476151439302,1.71791804196498,1.01925964199426,79.0922435952724,0.00839405847521903,0.715927677524702,0.0384517326502065,0.0573334557198855
"CA-Obs",53.9872,-105.1178,628.94,"ENF","Dfc",405.6,-55.931001552334,-316.804268091669,260.873266539335,1.20871494650303,12.997621142655,1.09879782762797,8.73529196369973,0.210746176932607,0.489060243853913,1.03037774809184,0.802898119323937,115.885036448493,-0.0345053336283057,0.00438395222986824,-0.0379648659563603,0.00200586897595532
"CA-Ojp",53.9163,-104.692,579,"ENF","Dfc",430.5,-38.1157311708607,-234.602970822693,196.487239651832,1.42220585534305,13.139870853113,0.967887007345719,9.27141364692218,0.220409052512204,0.493162320325157,1.12661351111094,0.771493624817575,68.5450157431271,-0.0161481952173518,0.10350975575937,0.0151782963871286,0.240934199260851
"US-Jo2",32.5849,-106.6032,1469,"OSH","Bwk",282.3,-175.496940076807,-245.855922407421,70.3589823306135,17.6401279836445,8.18672718024218,0.457891119837292,12.3220902025515,0.112837485050218,0.17125427940032,0.214988909986962,0.215734894182655,9,-0.0528378593274532,0.127270382519515,-0.000674430994611308,0.978358340469092
"US-MtB",32.416,-110.7256,2573,"ENF","Csb",790,-509.163275023604,-742.922998789147,233.759723765544,9.84277184301751,6.89019332815054,0.41123526177408,5.56516578147434,0.286181942393323,0.540026465308063,1.47862841676174,0.710326834572664,5,-0.0513925133023071,0.000877389182231212,-0.0248273741219477,0.108075549707671
"US-LL1",31.2792,-84.5329,165,"SAV","Cfa",1310,-203.965057788011,-874.347700658117,670.382642870105,19.4159674776561,6.81546041409114,0.636935780309807,10.0165257884084,0.370377385040857,0.699037711536203,1.87846007715265,1.5636495033428,20,-0.0254835586651594,0.0011651741979908,-0.0133703052573916,0.0438370503861261
"US-BZB",64.6955,-148.3208,100,"WET","Dfd",274,25.045077794412,-147.606624985555,172.651702779967,-1.53940827355926,14.9338205075614,1.59150600373749,13.0460404645818,0.17361072219906,0.360845193579614,0.6435434619755,0.669770630872915,78,-0.0449954435501468,0.00100338611710846,-0.0369416916150059,0.0101522891810255
"US-BZF",64.7013,-148.3121,95,"WET","Dfd",274,41.2170994348595,-154.744515385917,195.961614820777,-1.1839852560856,14.8273452020252,1.56442539787215,12.0930751017669,0.19572275219691,0.389992773852592,0.851519517622006,0.752174906894134,91,-0.0474783786388653,0.0242554670998351,-0.0293638872778746,0.146052774113458
"US-KL2",42.4768,-85.4468,258.3,"GRA","Dfa",1027,-263.119668264018,-650.348138992567,387.228470728548,9.32021508753712,10.5296910903344,0.880711625172847,10.2039741303919,0.260549767380642,0.46282475204122,1.09505595706223,1.10907892842325,29,-0.0350018378606535,3.15009743707198e-05,-0.0370443932297317,6.03725629940819e-07
"US-Ro4",44.6781,-93.0723,274,"GRA","Dfa",879,-293.989857633709,-568.914636070497,274.924778436789,7.60175569080942,11.9786686992986,1.49579715660121,11.510077164664,0.258736245765583,0.412654827477739,1.05747218862343,0.957687170441826,87,-0.0158497180043157,0.324464903883758,-0.0133800002714963,0.340730074389566
"US-KM4",42.4423,-85.3301,246.3,"GRA","Dfa",1027,-6.0138490938565,-527.299100885535,521.285251791677,9.19888443298007,10.4426683562123,0.969532711680583,10.7043551576929,0.297590963175335,0.480400747127746,1.2001791673533,1.11832852635564,370,0.0047331584113367,0.768606510892807,0.0202533501544746,0.178846624972561
"US-MBP",47.5051,-93.4893,416,"WET","Dfb",780,-235.353178727978,-301.151105677917,65.7979269499401,4.24512463760388,12.5525100037199,1.24034175841012,11.3720477435296,0.284089004018777,0.501531689731978,1.87480434927756,1.13536010660674,29,-0.0590230744421441,1.37071301195141e-05,-0.0500569972830015,0.000214258782485178
"US-Myb",38.0499,-121.765,-4,"WET","Csa",338,-345.419171589945,-730.623080008503,385.20390841856,15.5282701241036,5.3411190434678,0.545486701731869,10.3262612864682,0.344865317575033,0.571750548713897,1.54598683415592,1.63238050386387,29,0.0747903702498699,0.0687809105505637,0.0696774728096302,0.106244751010249
"US-NC4",35.7879,-75.9038,1,"WET","Cfa",1311,44.3801798026821,-771.264531392758,815.644711195433,17.038050136834,7.82707540171478,0.646656540485072,7.71063450602337,0.35534246442888,0.712813163023954,2.15037578467116,1.94544832110962,250,0.00245264283263732,0.914974983873152,-0.00012894699078848,0.995301195709616
"US-Tw1",38.1074,-121.6469,-5,"WET","Csa",421,-293.590674099642,-813.684690629763,520.09401653012,14.9789979059532,5.7490337879831,0.784274590800876,13.8315087942409,0.289151882162864,0.503075661479671,0.799678855920223,1.18403631856891,231,0.012451387236659,0.621453913481649,-0.00439491322149371,0.882553498860592
"US-Ced",39.8379,-74.3791,58,"CSH","Cfa",1138,-81.8936443317743,-716.861689674484,634.968045342711,12.0290654366615,9.12320493831541,0.711612046367918,9.75149101438567,0.345113920852593,0.696850985081933,2.27782548785099,1.57393961799795,28,0.00785917444384255,0.715611866789713,0.0132400940931197,0.456559647446431
"US-Oho",41.5545,-83.8438,230,"DBF","Dfa",849,-783.193237168397,-1156.01637936921,372.823142200809,10.5036297474442,10.2114889512564,0.838409997292995,8.98785446175681,0.347107240790532,0.589715782151366,2.29261278358685,1.51747315394973,82.2768931115302,0.0169930897196551,0.118236174815472,0.039448726903907,0.0039959149538861
"US-Slt",39.9138,-74.596,30,"DBF","Dfa",1138,18.4264655108193,-542.647043150486,561.073508661304,12.3415547295588,9.35440766450037,0.690651921947022,10.7663331203602,0.367755212535691,0.669821001406639,2.41341435947455,1.81101027706994,68.9446986652282,-0.00458023317079681,0.890284463075088,0.0363752856063389,0.165585815813323
"US-Wrc",45.8205,-121.9519,371,"ENF","Csb",2452,-290.644768345297,-488.504573618531,197.859805273235,9.19377553986907,7.20471376114537,0.77860702147017,8.8048445101629,0.357653455721941,0.775579842844015,2.36263057546548,1.44120548787272,101.479496783525,0.0185150541298138,0.325963091471397,0.037619394897266,0.0257388440321526
"AU-Tum",-35.6566,148.1517,1200,"EBF","Cfb",1159.01,-666.430363568438,-1557.7258006323,891.295437063867,9.53248648975493,6.15157098145256,0.896021748236895,6.04690851374325,0.345878013358442,0.74853132072947,4.14519945345041,2.48363707721383,123.345100402832,-0.0197662529251726,0.141513236522937,-0.00833078314537707,0.57821006991082
"BE-Bra",51.3076,4.5198,16,"MF","Cfb",750,-166.288563972815,-749.266662235729,582.978098262913,10.970535411607,6.05153243791498,0.804565076446664,6.56121280803164,0.358924364983157,0.694204121008411,2.13614227479065,1.35174061209821,79.5803451538086,-0.0386829438685947,0.0592188007351156,0.00907339435039324,0.65024405666707
"BE-Vie",50.3049,5.9981,493,"MF","Cfb",1062,-478.576669603235,-1021.33533353019,542.758663926959,8.46045320973198,6.51403276998003,0.90008641855086,6.28545170827858,0.347086027040043,0.708127389830606,2.02067244338862,1.30181758936042,129.024826049805,-0.00179819896103596,0.8412987238378,0.028317601188162,0.0047313387298153
"CH-Lae",47.4783,8.3644,689,"MF","Cfb",1100,-230.301691672354,-775.649287943764,545.347596271408,8.91576574516798,7.76688290346982,1.37410969384722,6.14976817766961,0.402360012692593,0.691731899909905,2.70420706822664,1.47312930880653,79.2319793701172,-0.0397716541322194,0.000156700336333471,-0.0269057786418132,0.00935041194216553
"CZ-BK1",49.5021,18.5369,875,"ENF","Dfb",1316,-706.673324418276,-1175.15668227263,468.483357854349,7.29131054704441,7.84426628312266,1.00347032380534,5.89462338678138,0.302740047289202,0.694963782446933,1.84740988014755,1.12523607334286,235.810729980469,0.0357730749659989,0.0120026321170517,0.0571285786091285,0.00053299161511897
"CZ-wet",49.0247,14.7704,426,"WET","Dfb",604,70.6151128263089,-389.116430370916,459.731543197225,8.88685522941543,7.66466204725279,0.735638212513212,10.8132253400929,0.37503378460016,0.584404436097938,1.4022786353697,1.13282754642692,76.5517730712891,0.0129825577508196,0.416113924912191,0.00629194561697346,0.750376675112495
"DE-Gri",50.95,13.5126,385,"GRA","Cfb",901,-84.3058971155482,-629.360069874929,545.054172759381,8.80515360598816,7.49373311645192,0.726677589143819,10.0027177275838,0.350130308642465,0.674273161815291,2.34571107267526,1.24622199855632,89,0.019225380473901,0.250220438532461,0.00300263782558357,0.831726700640507
"DE-Hai",51.0792,10.4522,430,"DBF","Cfb",720,-504.954047563738,-945.685434726155,440.731387162417,8.57596530324274,7.52423386471052,0.86546747451367,5.644504683672,0.37783450464704,0.684471695389911,2.14589890517889,1.1460306090693,79,-0.0331794390249004,0.00113639885385234,0.00217267899272281,0.793734002235107
"DE-Tha",50.9626,13.5651,385,"ENF","Cfb",843,-476.47260616411,-882.307324456534,405.834718292425,9.40255134094217,7.78619855684276,0.983414471537672,6.32749482863516,0.326846296310307,0.725934081726065,2.00341700710928,1.16948173188794,79,-0.0115613715907186,0.0206539152975213,0.0109524429276162,0.132590253538112
"DK-Sor",55.4859,11.6446,40,"DBF","Cfb",660,-228.277199687953,-912.389929051063,684.11272936311,8.76127826161202,6.4625596299101,0.794071682898293,5.09121651836642,0.394364843810936,0.631647917171815,2.57819245043684,1.50674990203585,91.6742324829102,-0.02851566257974,1.06283013368718e-05,-0.0191629408437724,0.00943932989871923
"FI-Hyy",61.8474,24.2948,181,"ENF","Dfc",709,-214.382949914456,-519.418977913989,305.036027999533,4.80029616803279,9.11392688787079,1.14371117721843,6.32351845361954,0.244738757101438,0.505136386115172,1.94365967324957,1.07498614547381,44.4856986999512,-0.0330940060294969,5.90756036551231e-13,-0.0121393105392994,0.0104558504646979
"FI-Sod",67.3624,26.6386,180,"ENF","Dfc",500,98.6972586207745,-99.0395788368508,197.736837457627,1.02561155510018,10.6200674703173,0.602333311290254,8.27390854326396,0.142862776079565,0.331580343998496,0.518258002613718,0.482747210399041,133.773406982422,-0.0577162549580186,5.31919434867996e-07,-0.0604238484136699,2.43569343461613e-05
"FR-Pue",43.7413,3.5957,270,"EBF","Csa",883,-265.34770347093,-732.836142569957,467.488439099028,14.147002876442,6.64625290550396,0.608136711306325,8.55516864391312,0.353271042173543,0.675778763695069,2.07175444654842,1.46986950273851,62,0.0113081091709084,0.53842837596802,0.0130132430614489,0.295202875611647
"IT-Lav",45.9562,11.2813,1353,"ENF","Dfb",1291,-1990.65408204957,-2063.26032472603,72.6062426764643,7.39348382553841,6.89476103436451,0.765863132714562,5.99747842190016,0.327520066819744,0.735570548306077,1.97831400822215,1.33768603981023,87.5299987792969,-0.0204822574175745,0.246325245271407,-0.00812825954204146,0.670807655141245
"IT-MBo",46.0147,11.0458,1550,"GRA","Dfb",1214,-18.350249624446,-604.92334303489,586.573093410442,5.53432594616474,6.8589988729961,0.607323328466359,7.02143658759124,0.295786993724312,0.428941811449741,1.19291086045125,1.06205608811325,78.8899993896484,-0.0255567270128948,0.0568996647275814,-0.0215616192853241,0.299750918613999
"IT-Noe",40.6062,8.1517,25,"CSH","Csa",588,-144.537083510501,-606.353192648342,461.816109137842,16.5881302557681,5.49241846551529,0.821192523588099,10.462381284221,0.277665954833359,0.625079712693846,1.20219994458626,1.78190961866561,77.9300003051758,0.0567945242147892,0.00160615976463507,0.0546749924644789,0.00363382228779689
"IT-Ren",46.5869,11.4337,1730,"ENF","Dfc",809.3,-680.608856043096,-994.568441120025,313.959585076929,4.72192737573099,7.05761298617528,0.675973909773953,7.23151181556196,0.255662626987094,0.544748506505867,1.53132670909628,1.0761966030888,102.099998474121,-0.0294584391553655,0.0192661943125807,-0.0234764617460366,0.0410283465376424
"IT-SRo",43.7279,10.2844,6,"ENF","Csa",920,-383.455985351316,-1080.22293694386,696.766951592542,15.3003335834437,6.4708377449922,0.423211069530171,8.69871129915381,0.310257224240999,0.684966945162407,1.93794501644079,1.64634649671419,76.8300018310547,-0.0334179608846734,0.00169474731403356,-0.0256976272657424,0.0264943469570404
"NL-Loo",52.1666,5.7436,25,"ENF","Cfb",786,-477.549989254435,-954.848332800751,477.298343546315,10.3430016926774,6.44251898225293,0.719877729602988,7.05813553018187,0.330614881575931,0.723400637063758,1.93115606087135,1.31485589978045,57.4398231506348,-0.0315258799122435,0.0259320727278498,0.0149168519240209,0.312434838525633
"RU-Fyo",56.4615,32.9221,265,"ENF","Dfb",711,79.8016548097907,-468.270655804134,548.072310613925,5.50118862118453,9.866869421309,0.72956795610433,6.80981694873071,0.285396237839374,0.611086080183997,1.67563701000629,1.03525759230627,56.6130409240723,-0.0334390313615083,0.0206300936835451,-0.0540024745329176,0.0111625674148308
"ZA-Kru",-25.0197,31.4969,359,"SAV","Bsh",547,24.5645279922733,-460.06791926178,484.632447254055,21.9076724935601,3.22304914015409,0.620008004463665,10.9047386980255,0.270693111951583,0.456128619026511,1.01300265944355,1.22969405612954,46.1278533935547,-0.151221491057633,1.30161765264957e-09,-0.0635762029010969,3.49305727601669e-06
"IT-Tor",45.8444,7.5781,2160,"GRA","Dfc",920,-53.3990208020822,-378.88073967873,325.481718876648,3.56659101969567,6.66248491964086,0.7840929524192,7.57881529228821,0.208387361016361,0.34270653172678,0.901416537606743,0.668415359477453,85.8399963378906,-0.0122127032539332,0.657793891300481,0.0151038211877859,0.609434713811904
"BE-Dor",50.311876,4.968113,250,"GRA","Cfb",581.795,-97.4769541054538,-959.952631189559,862.475677084107,10.1035293689974,6.15492877853217,0.58167706777697,8.68303806917144,0.445718875509951,0.647235439687862,1.45816333652462,1.1564227526124,83.4498748779297,-0.00511208415238717,0.562783881240595,-0.00438726298650785,0.644294030041794
"CH-Fru",47.115833,8.537778,982,"GRA","Dfb",1651,-298.756141864221,-912.35786013888,613.601718274661,8.04039474345066,7.20765234115182,0.634855889343677,7.57093251731358,0.412596028600113,0.604985806752047,1.83881503688333,1.28410118381219,82.6319885253906,0.00406021241309781,0.544058304346503,0.00874191479336226,0.206624391263521
"CZ-RAJ",49.443724,16.696513,648,"ENF","Dfb",681,-383.809907796587,-859.185069446136,475.37516164955,8.30023571955898,8.57815740149597,0.662898357364048,5.83909880537581,0.270829953171355,0.629061353303186,1.63129726566981,1.12315591369686,124.493309020996,0.0171496594608114,0.341776555697997,0.0309526292790992,0.10271998382887
"CZ-Stn",49.035975,17.9699,564,"DBF","Dfb",685,-278.430872105195,-821.369317578759,542.938445473565,8.98118323087432,8.37801424119843,0.696085383636686,5.97823673125527,0.361638678191261,0.655961826544872,2.35591902498838,1.20967255214406,84.7341232299805,-0.00942934481298744,0.392068954442336,0.00111305127206659,0.931053286534159
"DE-Obe",50.78666,13.72129,743,"ENF","Dfb",996,-226.057689823698,-858.858946476769,632.801256653071,6.93168692786418,7.7274844884537,0.792809281506245,5.24218428812131,0.281580622623092,0.706213975858283,1.64479758725273,1.1115747671808,89,-0.00436513838833111,0.684292095892503,0.0233364573118719,0.0939672324397338
"DE-RuR",50.6219,6.3041,514.7,"GRA","Cfb",1033,-118.192484701705,-824.359910137154,706.16742543545,8.58524093522313,6.439987981193,0.695806873549869,7.15743946093915,0.473789227156307,0.688206330812844,2.0013628520554,1.30888883883662,70,0.00717339152325072,0.438590825042746,0.0194529086202947,0.0939257319669854
"CH-Aws",46.583194,9.790417,1942,"GRA","Dfc",918,-343.08964268401,-843.345162258304,500.255519574291,4.73601530718731,6.40748652085589,1.24788751480249,7.59069397535372,0.162847466496808,0.351048982273674,0.873428716871161,0.77464745017192,98.2575454711914,-7.55371256519071e-05,0.994404102459623,0.0112547295781323,0.321782187111018
"ES-LJu",36.926594,-2.752115,1613,"OSH","Csb",400,-9.39167239368855,-74.6445736803773,65.2529012866889,11.9658351285554,6.8798850672065,0.552650550886193,6.87101916192883,0.156131753795721,0.36474200017345,0.37733975963964,0.559924322705001,37.0802955627441,-0.128418089355323,0.000137522791298699,-0.125816785744624,0.00112584750513824
"FR-FBn",43.24079,5.67865,433,"MF","Csa",700,-561.031217007427,-1048.75988079321,487.728663785781,14.1791805929612,6.51811264903114,0.719903847179937,6.83265180840665,0.312322154163546,0.653080885469436,1.85169037904262,1.66657177466373,62,0.0634977793448218,0.000150273752065688,0.081448775836031,3.892619101382e-09
"FR-Fon",48.476358,2.780096,104,"DBF","Cfb",720,-591.859569221679,-1088.31903971927,496.45947049759,11.781572907446,6.48965519930657,0.782169161278032,7.50092675605363,0.407642864048184,0.668099171568401,2.54211370996448,1.72008508645343,45,0.0227633530142761,0.0916781110121527,0.0686325968288607,3.25650148247791e-07
"GF-Guy",5.2788,-52.9249,48,"EBF","Am",3041,-219.262193000648,-1774.38231014212,1555.12011714147,25.9023911785633,0.834548468903374,0.38394033288273,4.9391753635586,0.474317399649342,0.811933861778792,4.13282318922444,3.36994676739437,23.965991973877,0.0436552020920798,0.00223807102064316,0.0971621039635125,7.71316555913086e-08
"IL-Yat",31.345045,35.051989,652,"ENF","Csa",285,-128.658815276159,-357.160321648669,228.50150637251,18.3761550155112,6.37791233506911,0.624908652117271,10.3076309034908,0.199036790514001,0.345148008659677,0.591916179220703,0.596915954948961,20.8504829406738,-0.0254921493443444,0.0375196015218022,-0.00135306496081223,0.891716123808963
"SE-Deg",64.182,19.5565,270,"GRA","Dfc",523,-52.3517137599614,-113.894647689586,61.5429339296244,2.57836290697873,9.39947356576815,0.902916427901531,8.82949238386407,0.209691561279432,0.403204797742327,0.92237752057649,0.793380385193915,81.2222213745117,0.0207701919667425,0.0675870757697239,0.0232028754320666,0.0238959024120292
"IT-SR2",43.732022,10.29091,13,"ENF","Csa",920,-222.00947934841,-1243.52357841861,1021.5140990702,15.8001318875228,6.13717672342948,0.396637985760731,7.80952792990142,0.36363842653508,0.779128469237006,2.53584061395502,1.8197634767923,76.8300018310547,0.00833522587650188,0.543326603120507,0.00450107526892859,0.7915006487314
"CH-Dav",46.8153,9.8559,1639,"ENF","Dfc",1062,-17.3858085598854,-558.45030742096,541.064498861074,4.40516718912633,7.09208280426661,0.716998184196954,7.90296127896744,0.202076474355777,0.436143667974725,0.889368032095204,0.796840448674924,94.0256500244141,-0.0187216499856176,0.0632112779245385,-0.0179021230134226,0.0370837202607161
"DE-Akm",53.8662,13.6834,-1,"WET","Cfb",558,-46.7188718328051,-558.982556870301,512.263685037497,10.0290060789431,6.63548075662733,0.993876891831831,7.31035720303286,0.278787593821784,0.499805376169501,1.58138630668587,1.21551104006925,244,0.023768689202101,0.384713331895621,0.0372405738750775,0.178995451612285
"DE-Hte",54.2103,12.1761,0.2,"WET","Dfb",645,-155.790161942323,-412.370821690699,256.580659748376,9.82100147680125,6.8776268656682,0.809497680341758,5.51667630057803,0.295211127831552,0.589761017794885,1.7021471673642,1.19918238692797,107,0.0864056585960578,0.0165147422439629,0.12212530672937,0.000627584288928938
"DE-Hzd",50.96381,13.48978,395,"DBF","Dfb",877,164.911175149702,-444.688007166951,609.599182316653,9.88396812386157,7.49418589343772,1.12818770487068,7.84968218115446,0.316207220909361,0.714139087693842,1.88335029344554,1.20253018527933,79,-0.0580535577268482,0.0523722568389517,-0.0482218205855348,0.125369582379037
"DE-RuC",50.5031,6.336,610,"OSH","Cfb",1250,144.496932641797,-308.67117700713,453.168109648927,8.39426269922587,6.64272112711054,0.627656800898261,6.55914895947426,0.283421043673173,0.751242787501254,1.76358718829438,1.22761489659163,79,0.0167620301518071,0.584476516666146,0.0200135136368271,0.596111594769288
"DE-RuW",50.5049269,6.33096248,610,"ENF","Cfb",1250,-477.308612212623,-1018.19905119314,540.890438980514,8.50362619535519,6.6204959685824,1.14738518767429,6.0338114373393,0.283421043673173,0.751242787501254,1.64037215218333,1.24407185324081,79,0.0262227896919204,0.185792440348358,0.0363684082157555,0.0454843626193545
"DE-SfS",47.80629,11.32757,619,"WET","Cfb",1127,-397.656239300577,-626.658628321425,229.002389020852,9.18893603395062,7.49678246488181,0.828849865329147,11.219162818992,0.260687290506878,0.588811073833238,1.41410881279991,1.21732591392455,230,0.0205909883152516,0.376690177458049,0.00880109034797576,0.646710946284407
"FR-Bil",44.493652,-0.956092,39,"ENF","Cfb",960.1,-406.905726202312,-1040.6005231096,633.694796907286,14.1002856348664,5.7886917022077,0.533666979335366,9.75670791130578,0.311191159270394,0.574524937932556,1.23471418983395,1.47604681650214,62,-0.0460426417853521,0.000556909789415723,-0.00303034212766285,0.784928045951266
"IT-TrF",45.82376,7.56089,2100,"DNF","Dfc",885,-1066.91773568178,-1086.77539837657,19.8576626947976,4.60332079989185,6.60538987539163,0.590529482219937,5.39289417959246,0.231176477620778,0.419187283432203,0.794967358162473,0.556131842293991,87.0999984741211,0.0376253750391572,0.0546669187656578,0.0679267760422256,4.83953297924177e-06
"SE-Nor",60.0865,17.479504,58,"ENF","Dfb",586,340.224998313058,-264.612159103283,604.837157416342,7.1854612380637,7.74042637041906,0.623036401451145,6.97147137879542,0.29297650159757,0.628251313765508,1.78837498679959,1.16730381714613,68.9576568603516,-0.0357785417736638,0.181618131314724,0.00757106794497705,0.861332063721749
"SE-Svb",64.25611,19.7745,267,"ENF","Dfc",614,-113.902940413401,-440.411672550481,326.508732137081,3.38662393113742,8.9499324079805,0.546643845819432,6.19454866180049,0.254988859975355,0.570681357801184,1.52492942748832,0.896430904575299,61.3830261230469,-0.0198605531022807,0.246081849093816,-0.0129091334915076,0.514872407595274
"UK-AMo",55.792545,-3.2436917,268,"WET","Cfc",960,-16.6258462619646,-340.884898422233,324.25905216027,7.88496450577755,4.76749738001939,0.65410274106955,7.01414407939767,0.398443312567709,0.614110666322815,1.24771366839385,0.935491585059964,156.634002685547,0.00208096344344729,0.901036746486288,0.00992258213830557,0.521076755689311
"CA-Mer",45.4094,-75.5186,70,"WET","Dfb",943,-109.542264626334,-314.366633046391,204.824368420058,6.14797238591302,11.6114811283027,0.700989077581606,12.510628323156,0.271750732499803,0.481071430762829,1.18099059523543,1.0712970080022,134.958039806659,-0.0606522871871519,5.56841516253828e-06,-0.041610586144109,0.000168755317513333
"CA-TPD",42.6353,-80.5577,260,"DBF","Dfb",1036,-222.452996593877,-691.252130323024,468.799133729146,10.0473445520782,10.1394654763105,1.08534814346837,7.24882143820131,0.352956212787362,0.585328935050786,2.29530908905951,1.82361412902457,82.5454559326172,0.0163011277037725,0.367001605185224,0.0887525010568366,1.90596769855205e-05
"US-BZS",64.6963,-148.3235,100,"ENF","Dfd",274,-15.1889527552365,-215.16029745031,199.971344695075,-0.908258402449001,14.9603104663527,1.33075216753546,11.8164210134949,0.173681441022937,0.36116741949569,1.13246395408042,0.843841528044351,78,0.100742905531548,0.0044507220521721,0.0842951788463861,0.0227986131618327
"US-Cwt",35.0592,-83.4275,690,"DBF","Dfb",1800,-40.585859573864,-706.469121346403,665.883261772538,13.2551681713002,7.25731877173192,0.449963365949602,10.7015826568887,0.428328993271222,0.728966439139061,2.61757795845929,1.4508600961571,45,-0.00194954163238641,0.963593655385825,0.0295410952019386,0.489707908202792
"US-Rls",43.1439,-116.7356,1608,"CSH","Bsh",333,-133.430056782572,-343.151997477632,209.72194069506,8.63219631890685,9.62679690872849,0.712063551812423,8.58970970266041,0.121030572824098,0.243083500054004,0.297088581442702,0.317165639823574,16,-0.0483529622799255,0.00445084402000999,-0.0146867867602185,0.215075932823736
"US-Rws",43.1675,-116.7132,1425,"OSH","Bsk",290,-84.9014676308544,-225.554190420559,140.652722789704,9.68634846840034,9.72011227966319,0.662441671908429,9.34006272084806,0.104330328532245,0.208196061462201,0.217384287119243,0.232880044375693,14,-0.0342494253642323,0.0177664863526486,0.000763125422847914,0.937319179551028
