"site_ID","LAT","LONG","ELEV","IGBP","Climate_class","MAP","NEE","NEE_day","NEE_night","MATA","SSTA","IATA","DRTA","EVI","NDVI","LAI","GPP","SOC","TAS_tot","TAS_totp","TAS","TASp"
"US-Uaf",64.8663,-147.8555,155,"ENF","Dwc",263,-82.4098785848934,-227.616982291394,145.207103706501,-2.98242513312722,15.1682248231281,0.764873017055125,11.8988759496096,0.138765740865376,0.305327436168788,0.670178301866125,0.629977960955799,92,0.000224837,0.990635877,0.01485687,0.484444209
"CA-Ca3",49.5346,-124.9004,171,"ENF","Cfb",1676,-455.379272064802,-959.058466780295,503.679194715493,12.3304552756665,6.67563836786394,0.93605259403359,7.00047781096128,0.483764765512812,0.85744878269744,2.77160019655826,1.44717717497676,128.279004970315,-0.033349255,0.040982094,-0.011987571,0.43526789
"CA-Cbo",44.3167,-79.9333,120,"DBF","Dfb",876.34,-300.199848448426,-801.286378847198,501.086530398772,7.35925840562685,10.0567792588981,0.718274965343145,9.29275605685464,0.306037317543821,0.526104282298632,2.21825544270992,1.26107559415306,67.8214263916016,0.011375384,0.528332816,0.046348409,0.027056638
"US-Ha1",42.5378,-72.1715,340,"DBF","Dfb",1071,-255.803522299046,-728.151618969721,472.348096670675,8.2974453235681,9.80788057960202,0.876678292570585,8.10571834127547,0.403562789555175,0.704857136150235,2.48065787418768,1.30998248936802,76,0.027096595,0.031243572,0.047738959,3.31e-05
"US-Ha2",42.5393,-72.1779,360,"ENF","Dfb",1071,-456.612319351924,-777.356309420832,320.743990068909,8.43907282155701,9.89675258261986,0.453299541819657,8.09572215282013,0.403562789555175,0.704857136150235,2.55671206501928,1.31751084286925,110.267678767598,0.02124225,0.332875257,0.048608376,0.041518922
"US-Var",38.4133,-120.9508,129,"GRA","Csa",559,1.64906657902231,-263.339095509817,264.988162088839,16.0559375266963,6.71603565406507,0.620708747030054,14.5005042461328,0.272531467822636,0.47574838228951,1.07455556791319,0.980143759988571,42,-0.114545794,1.3e-06,0.020379664,0.166956467
"US-Ton",38.4309,-120.966,177,"WSA","Csa",559,-84.6129620112258,-506.98591472212,422.372952710894,16.5282453976011,6.73374212043556,0.613127176763326,11.7137604111652,0.242400506411767,0.460178900708436,1.03399091637775,0.993069105378879,36,-0.024441256,0.014939778,0.010849291,0.160514877
"US-Los",46.0827,-89.9792,480,"WET","Dfb",828,-117.433639043415,-385.021874940024,267.58823589661,5.36522281925666,11.3020797468289,1.0157027431399,11.1512904845288,0.286608488108726,0.508468292594242,1.77880646882053,1.22605060174205,122.700215103146,0.01953125,0.107684949,0.024981629,0.033346963
"US-Wkg",31.7365,-109.9419,1531,"GRA","Bsk",407,-35.4361337700021,-111.110564125889,75.6744303558872,17.511085831915,7.05644724256866,0.545548007366159,10.3176792355922,0.130699385324435,0.217351349119165,0.292958322588121,0.309915430274057,65.1997345512359,-0.175895377,0.002888846,-0.003555474,0.917425947
"US-SRM",31.8214,-110.8661,1120,"WSA","Bsk",380,2.03561792041462,-123.12621010535,125.161828025765,19.2913015739938,7.3281085994924,0.577868190401718,12.3191787308821,0.156863848719954,0.264012355237655,0.386180139526337,0.364387015876334,68.5313912932019,-0.135723155,9.24e-11,-0.028981882,0.091319161
"US-CMW",31.6637,-110.1777,1199,"DBF","Bsh",288,-369.464200716224,-670.418407669486,300.954206953262,17.0168684470823,7.43436510752022,0.398825587697862,18.122716661306,0.165785472859125,0.312382748061759,0.524831264939185,0.452409511124914,12,-0.096795771,1.45e-12,-0.033818621,0.00907
"US-Ho1",45.2041,-68.7402,60,"ENF","Dfb",1070,-299.357336404256,-764.269802694207,464.912466289951,6.61769827178531,10.3894591738177,0.611917349046751,11.8398848333476,0.38629961278147,0.741637895710001,2.28759384411156,1.2763492036023,77.0823702411732,0.021021446,0.149285809,0.046497316,0.000240536
"US-Ho2",45.2091,-68.747,61,"ENF","Dfb",1064,-324.212943556417,-818.803083262039,494.590139705622,7.69243464477616,10.4029092117817,1.16021966967335,12.0846137054206,0.388248776323485,0.733546110231947,2.40223919768634,1.28013658333766,77.8201251446013,-0.003734023,0.603687975,-0.003109153,0.645667666
"US-GLE",41.3665,-106.2399,3197,"ENF","Dfc",1200,-40.7940034197729,-298.531023846191,257.737020426418,0.307851819431939,9.35796573732873,0.790245507634254,6.97957783849918,0.19259468702435,0.394892674484259,0.437811560046835,0.412233439218874,34,-0.047346433,0.048474002,-0.000439773,0.988580873
"US-Me2",44.4526,-121.5589,1253,"ENF","Csb",523,-352.598034904017,-794.334843163624,441.736808259608,7.96091504048442,7.89864891939212,0.597719394793707,7.78935665986664,0.307782037271677,0.613216335402696,1.92881377807634,1.22255615035829,61.1751452800194,-0.032086091,0.016445144,-0.027583311,0.035415702
"US-NR1",40.0329,-105.5464,3050,"ENF","Dfc",800,-196.978231574533,-441.815823357289,244.837591782756,2.38039954436845,8.79652290713141,0.529362658342584,7.41998027791418,0.260572977824396,0.513702302610155,1.28948856696981,0.916444570729847,41,-0.037383546,0.001791583,0.021329017,0.063748303
"US-WCr",45.8059,-90.0799,520,"DBF","Dfb",787,-279.449879830527,-615.761801766874,336.311921936347,5.25320701878075,11.6162168594292,0.905934512325543,8.5221571727508,0.314963571918326,0.509575196835433,1.87511823846096,1.1605769742107,133.362310447064,0.017681098,0.295905225,0.044998231,0.002387607
"US-UMB",45.5598,-84.7138,234,"DBF","Dfb",803,-222.070158376689,-652.223817873483,430.153659496794,7.14666806092529,10.5814384833498,0.94486991907631,7.38299038654482,0.324729545576914,0.516272400014923,2.12886593098486,1.68618118277874,80.2383217725046,-0.004424393,0.616527005,0.019052046,0.068141203
"US-MMS",39.3232,-86.4131,275,"DBF","Cfa",1032,-362.721084655538,-767.544919660513,404.823835004975,12.4799725167441,9.99122154421021,0.722759136978528,7.96366122221873,0.397461544346683,0.658723739603568,2.35535341726433,1.5498247075054,35,-0.025500571,0.010629575,-0.010564609,0.179536807
"US-PFa",45.9459,-90.2723,470,"MF","Dfb",823,5.43055146062493,-312.911104455532,318.341655916157,5.75627147552502,11.5264183402542,1.24042261438011,8.67869466339043,0.318687832903812,0.571651959815896,1.85520053387414,1.19569368035885,133.362310447064,-0.019113593,0.080769546,0.009628287,0.503769487
"US-Syv",46.242,-89.3477,540,"MF","Dfb",826,-137.448386267437,-555.987407250306,418.539020982869,4.5960791753273,11.5954027312467,0.997032232795844,8.02176506287872,0.269013311491147,0.526037184085669,1.86648920751807,1.1863850450208,136.091491259954,-0.026807392,0.259946713,0.01205932,0.571480563
"US-Whs",31.7438,-110.0522,1370,"OSH","Bsk",320,15.9964070075305,-28.995835298706,44.9922423062365,17.1486577242603,7.39092625755831,0.442867115889557,15.0780040053702,0.116940293796712,0.197097685124003,0.253273051307468,0.264389196033975,7,-0.175124088,0.000980298,0.02536902,0.597641107
"US-ICt",68.6063,-149.3041,930,"OSH","ET",318,-2.78557041035211,-71.1991653594605,68.4135949491085,-5.46855087016162,11.9086137021756,0.850603751493354,6.80457350683604,0.100842193763491,0.173642229577809,0.738432515753046,0.546040890951644,128,-0.08870749,0.5180023,-0.009641222,0.803319132
"US-ICh",68.6068,-149.2958,940,"OSH","ET",318,9.13126007274838,-51.5939878957017,60.7252479684498,-6.72227740285918,12.7357222104726,1.18693018478249,7.38724373443969,0.0995435118851559,0.172997456219807,0.690528112414545,0.538789719132594,128,-0.003248239,0.860765325,-0.01212788,0.496037953
"US-ICs",68.6058,-149.311,920,"WET","ET",318,82.0125714683597,-27.1550171381426,109.167588606502,-6.53046964990086,12.9340777001579,1.30793692024931,8.27389388621167,0.100842193763491,0.173642229577809,0.763480373584811,0.581711018032912,128,-0.009859211,0.748646552,0.006832399,0.824777698
"US-SRG",31.7894,-110.8277,1291,"GRA","Bsk",420,-36.8785175429861,-226.216585812787,189.338068269801,18.9902663875562,7.18886643613711,0.535970302560669,11.7968486809869,0.171173770915011,0.283310399193134,0.428213064752866,0.416332844745107,25,-0.0887056,2.09e-08,-0.002978283,0.727474248
"US-IB2",41.8406,-88.241,226.5,"GRA","Dfa",930.25,-205.231668550004,-635.207145349067,429.975476799063,9.05986855528352,10.913591156998,0.98865834638271,10.1388701363178,0.310126466584292,0.486912829940522,1.23416281203187,1.09620459798158,95.8746270868286,0.008128626,0.567442287,0.026713498,0.074979299
"US-Kon",39.0824,-96.5603,417,"GRA","Cfa",867,-167.403101191744,-686.268258499818,518.865157308074,12.9724541103807,10.7884603889836,1.1133106352026,11.9674716398881,0.291339014144935,0.464675108759893,1.12033214202857,0.895653983126464,55,-0.0771084,0.000321337,-0.020138566,0.171771108
"US-MOz",38.7441,-92.2,219.4,"DBF","Cfa",986,-351.783780508019,-764.264466489245,412.480685981226,13.6013677377156,10.36737614374,1.02098978627484,9.67622945697368,0.374392750793528,0.650998563211805,2.50168066426332,1.50145676256468,45,-0.006177243,0.730961942,0.055176597,4.77e-05
"US-NC2",35.803,-76.6685,5,"ENF","Cfa",1320,-384.90875878803,-1172.5547109489,787.645952160867,16.0910711073935,7.99146930423251,0.432484858044764,10.2808308239762,0.408015094608534,0.736809984982715,4.32742858664516,1.77079085842252,134,-0.017834173,0.063595885,0.000872079,0.938459151
"US-Bar",44.0646,-71.2881,272,"DBF","Dfb",1245.77,-183.175889860034,-592.589530345926,409.413640485892,7.52986439001788,10.1449619932176,0.583123730176216,9.80362671633294,0.387836521406084,0.65511303091792,2.26231966819736,1.27286049885849,69.1446739654002,0.022454308,0.360491182,0.048472997,0.108980332
"CA-Oas",53.6289,-106.1978,530,"DBF","Dfc",428.53,-129.574124354087,-467.111055351719,337.536930997632,1.9188985627874,12.8136266491799,0.937533834331656,8.17684663139846,0.254007802691961,0.44585919701684,1.74565207143055,0.910214576994226,85.7424686042127,-0.007581997,0.64926946,0.002376858,0.858728632
"CA-TP4",42.7102,-80.3574,184,"ENF","Dfb",1036,-192.620774766243,-736.553422350244,543.932647584,9.34218745775812,10.1754412319105,0.784144302268558,7.4687748261825,0.366995349588922,0.658590351307381,2.40391076450772,1.4573320487945,87.3392127180004,-0.016932252,0.045584558,0.010249362,0.236692205
"CA-TP3",42.7068,-80.3483,184,"ENF","Dfb",1036,-547.841828058759,-996.82518102302,448.983352964261,9.19332656016215,10.1200527604757,0.783601790326769,7.75400058668231,0.340775011955561,0.619047329495565,2.20527476095026,1.47551587292668,87.1240342045005,0.009141609,0.348,0.029469107,0.00753
"CA-Man",55.8796,-98.4808,259,"ENF","Dfc",520,-2.64712046777689,-227.229725756444,224.582605288668,-1.18050736032259,14.667151708872,1.29438905540596,9.76886613807042,0.189257876734803,0.453116642485438,1.00883598846677,0.723940764386019,177.300924902971,0.033842285,0.088305106,0.028739988,0.139975402
"CA-LP1",55.1119,-122.8414,751,"ENF","Dfb",570,-181.721007541168,-317.294472933927,135.57346539276,3.1681494512506,10.0231777303835,0.738260628995649,9.02026357500684,0.198464359316541,0.43322947710749,0.881869438090437,0.752706147985198,70.6500015258789,-0.03559637,0.049633507,0.013850356,0.560396108
"CA-Ca1",49.8673,-125.3336,300,"ENF","Cfb",1369,-373.758018249995,-1083.81887737918,710.06085912919,8.06550019586459,6.16181589678569,0.450077379849812,5.357712276357,0.367616226634762,0.761267813468333,2.14091943762517,1.3692235689597,114.810336274817,0.029095443,0.008716794,0.038396183,0.001818942
"CA-Gro",48.2167,-82.1556,340,"MF","Dfb",831,-113.466320934151,-453.877799414088,340.411478479938,3.57907558656431,12.389301349359,1.06041532671307,9.19250708961711,0.291918607237608,0.565476151439302,1.71791804196498,1.01925964199426,77.9411599844663,0.008555912,0.710516688,0.016308018,0.594839664
"CA-Obs",53.9872,-105.1178,628.94,"ENF","Dfc",405.6,-55.931001552334,-316.804268091669,260.873266539335,1.20871494650303,12.997621142655,1.09879782762797,8.73529196369973,0.210746176932607,0.489060243853913,1.03037774809184,0.802898119323937,115.25329661475,-0.019301315,0.320296826,-0.03426852,0.060276581
"CA-Ojp",53.9163,-104.692,579,"ENF","Dfc",430.5,-38.1157311708607,-234.602970822693,196.487239651832,1.42220585534305,13.139870853113,0.967887007345719,9.27141364692218,0.220409052512204,0.493162320325157,1.12661351111094,0.771493624817575,67.2450541394996,-0.014045373,0.165975017,0.011743072,0.384050931
"US-Jo2",32.5849,-106.6032,1469,"OSH","Bwk",282.3,-175.545974895622,-245.866908928517,70.3209340328945,17.6217501488475,8.21497858097333,0.441738431147,12.3111241575475,0.112837485050218,0.17125427940032,0.214988909986962,0.215734894182655,9,-0.104146303,0.002033807,-0.006218129,0.789329545
"US-MtB",32.416,-110.7256,2573,"ENF","Csb",790,-509.163275023604,-742.922998789147,233.759723765544,9.84277184301751,6.89019332815054,0.41123526177408,5.56516578147434,0.286181942393323,0.540026465308063,1.47862841676174,0.710326834572664,5,-0.050050128,0.001310878,-0.024363314,0.118782948
"US-LL1",31.2792,-84.5329,165,"SAV","Cfa",1310,-203.965057788011,-874.347700658117,670.382642870105,19.4159674776561,6.81546041409114,0.636935780309807,10.0165257884084,0.370377385040857,0.699037711536203,1.87846007715265,1.5636495033428,20,-0.006457545,0.49244878,0.011946295,0.14904561
"US-BZB",64.6955,-148.3208,100,"WET","Dfd",274,25.045077794412,-147.606624985555,172.651702779967,-1.53940827355926,14.9338205075614,1.59150600373749,13.0460404645818,0.17361072219906,0.360845193579614,0.6435434619755,0.669770630872915,78,0.046867224,0.313532702,0.076931506,0.164124113
"US-BZF",64.7013,-148.3121,95,"WET","Dfd",274,41.2170994348595,-154.744515385917,195.961614820777,-1.1839852560856,14.8273452020252,1.56442539787215,12.0930751017669,0.19572275219691,0.389992773852592,0.851519517622006,0.752174906894134,91,-0.036447151,0.594970993,-0.013754181,0.840956431
"US-KL2",42.4768,-85.4468,258.3,"GRA","Dfa",1027,-263.119668264018,-650.348138992567,387.228470728548,9.32021508753712,10.5296910903344,0.880711625172847,10.2039741303919,0.260549767380642,0.46282475204122,1.09505595706223,1.10907892842325,29,-0.001853173,0.941,0.016895922,0.48
"US-Ro4",44.6781,-93.0723,274,"GRA","Dfa",879,-293.989857633709,-568.914636070497,274.924778436789,7.60175569080942,11.9786686992986,1.49579715660121,11.510077164664,0.258736245765583,0.412654827477739,1.05747218862343,0.957687170441826,87,-0.016911695,0.302022662,-0.012964515,0.362530435
"US-KM4",42.4423,-85.3301,246.3,"GRA","Dfa",1027,-6.0138490938565,-527.299100885535,521.285251791677,9.19888443298007,10.4426683562123,0.969532711680583,10.7043551576929,0.297590963175335,0.480400747127746,1.2001791673533,1.11832852635564,370,0.01123324,0.493318801,0.023864974,0.119727696
"US-MBP",47.5051,-93.4893,416,"WET","Dfb",780,-235.353178727978,-301.151105677917,65.7979269499401,4.24512463760388,12.5525100037199,1.24034175841012,11.3720477435296,0.284089004018777,0.501531689731978,1.87480434927756,1.13536010660674,29,0.005672631,0.873,0.028716338,0.402236605
"US-Myb",38.0499,-121.765,-4,"WET","Csa",338,-345.419171589945,-730.623080008503,385.20390841856,15.5282701241036,5.3411190434678,0.545486701731869,10.3262612864682,0.344865317575033,0.571750548713897,1.54598683415592,1.63238050386387,29,-0.010960362,0.821109658,0.022922916,0.643620253
"US-NC4",35.7879,-75.9038,1,"WET","Cfa",1311,44.3801798026821,-771.264531392758,815.644711195433,17.038050136834,7.82707540171478,0.646656540485072,7.71063450602337,0.35534246442888,0.712813163023954,2.15037578467116,1.94544832110962,250,0.0957695,0.000123736,0.090000381,0.000541564
"US-Tw1",38.1074,-121.6469,-5,"WET","Csa",421,-293.590674099642,-813.684690629763,520.09401653012,14.9789979059532,5.7490337879831,0.784274590800876,13.8315087942409,0.289151882162864,0.503075661479671,0.799678855920223,1.18403631856891,231,0.005571118,0.917412876,0.013351743,0.842873894
"US-Ced",39.8379,-74.3791,58,"CSH","Cfa",1138,-81.8936443317743,-716.861689674484,634.968045342711,12.0290654366615,9.12320493831541,0.711612046367918,9.75149101438567,0.345113920852593,0.696850985081933,2.27782548785099,1.57393961799795,28,0.00772949,0.722144273,0.014048209,0.432482141
"US-Oho",41.5545,-83.8438,230,"DBF","Dfa",849,-783.193237168397,-1156.01637936921,372.823142200809,10.5036297474442,10.2114889512564,0.838409997292995,8.98785446175681,0.347107240790532,0.589715782151366,2.29261278358685,1.51747315394973,81.1707619976708,0.016902648,0.123809367,0.039306674,0.004534667
"US-Slt",39.9138,-74.596,30,"DBF","Dfa",1138,18.4264655108193,-542.647043150486,561.073508661304,12.3415547295588,9.35440766450037,0.690651921947022,10.7663331203602,0.367755212535691,0.669821001406639,2.41341435947455,1.81101027706994,67.6503787327622,-0.007320031,0.820708749,0.035689661,0.167611013
"US-Wrc",45.8205,-121.9519,371,"ENF","Csb",2452,-290.644768345297,-488.504573618531,197.859805273235,9.19377553986907,7.20471376114537,0.77860702147017,8.8048445101629,0.357653455721941,0.775579842844015,2.36263057546548,1.44120548787272,100.644417469409,0.018441777,0.326780468,0.036937463,0.028116135
"AU-Tum",-35.6566,148.1517,1200,"EBF","Cfb",1159.01,-666.430363568438,-1557.7258006323,891.295437063867,9.53248648975493,6.15157098145256,0.896021748236895,6.04690851374325,0.345878013358442,0.74853132072947,4.14519945345041,2.48363707721383,123.345100402832,-0.022343041,0.125293057,-0.008210381,0.61533789
"BE-Bra",51.3076,4.5198,16,"MF","Cfb",750,-166.288563972815,-749.266662235729,582.978098262913,10.970535411607,6.05153243791498,0.804565076446664,6.56121280803164,0.358924364983157,0.694204121008411,2.13614227479065,1.35174061209821,79.5803451538086,0.017021743,0.306899728,0.063884628,0.000157053
"BE-Vie",50.3049,5.9981,493,"MF","Cfb",1062,-478.576669603235,-1021.33533353019,542.758663926959,8.46045320973198,6.51403276998003,0.90008641855086,6.28545170827858,0.347086027040043,0.708127389830606,2.02067244338862,1.30181758936042,129.024826049805,0.00156524,0.867302212,0.029913303,0.004505569
"CH-Lae",47.4783,8.3644,689,"MF","Cfb",1100,-230.301691672354,-775.649287943764,545.347596271408,8.91576574516798,7.76688290346982,1.37410969384722,6.14976817766961,0.402360012692593,0.691731899909905,2.70420706822664,1.47312930880653,79.2319793701172,0.056185575,6.67671e-08,0.058104517,1.91e-08
"CZ-BK1",49.5021,18.5369,875,"ENF","Dfb",1316,-706.673324418276,-1175.15668227263,468.483357854349,7.29131054704441,7.84426628312266,1.00347032380534,5.89462338678138,0.302740047289202,0.694963782446933,1.84740988014755,1.12523607334286,235.810729980469,0.03277259,0.026542521,0.053509203,0.001671465
"CZ-wet",49.0247,14.7704,426,"WET","Dfb",604,70.6151128263089,-389.116430370916,459.731543197225,8.88685522941543,7.66466204725279,0.735638212513212,10.8132253400929,0.37503378460016,0.584404436097938,1.4022786353697,1.13282754642692,76.5517730712891,0.013277216,0.430151015,0.006742041,0.744978199
"DE-Gri",50.95,13.5126,385,"GRA","Cfb",901,-84.3058971155482,-629.360069874929,545.054172759381,8.80515360598816,7.49373311645192,0.726677589143819,10.0027177275838,0.350130308642465,0.674273161815291,2.34571107267526,1.24622199855632,89,0.021720951,0.21252543,0.015433644,0.250357718
"DE-Hai",51.0792,10.4522,430,"DBF","Cfb",720,-504.954047563738,-945.685434726155,440.731387162417,8.57596530324274,7.52423386471052,0.86546747451367,5.644504683672,0.37783450464704,0.684471695389911,2.14589890517889,1.1460306090693,79,-0.032939059,0.001554466,0.001460963,0.861842919
"DE-Tha",50.9626,13.5651,385,"ENF","Cfb",843,-476.47260616411,-882.307324456534,405.834718292425,9.40255134094217,7.78619855684276,0.983414471537672,6.32749482863516,0.326846296310307,0.725934081726065,2.00341700710928,1.16948173188794,79,-0.010715324,0.033092555,0.01040623,0.157758416
"DK-Sor",55.4859,11.6446,40,"DBF","Cfb",660,-228.277199687953,-912.389929051063,684.11272936311,8.76127826161202,6.4625596299101,0.794071682898293,5.09121651836642,0.394364843810936,0.631647917171815,2.57819245043684,1.50674990203585,91.6742324829102,-0.028684423,1.12e-05,-0.020042401,0.006811583
"FI-Hyy",61.8474,24.2948,181,"ENF","Dfc",709,-214.382949914456,-519.418977913989,305.036027999533,4.80029616803279,9.11392688787079,1.14371117721843,6.32351845361954,0.244738757101438,0.505136386115172,1.94365967324957,1.07498614547381,44.4856986999512,-0.033487078,2.81e-12,-0.012119979,0.014242545
"FI-Sod",67.3624,26.6386,180,"ENF","Dfc",500,98.6972586207745,-99.0395788368508,197.736837457627,1.02561155510018,10.6200674703173,0.602333311290254,8.27390854326396,0.142862776079565,0.331580343998496,0.518258002613718,0.482747210399041,133.773406982422,0.005273925,0.693,0.006052569,0.738
"FR-Pue",43.7413,3.5957,270,"EBF","Csa",883,-265.34770347093,-732.836142569957,467.488439099028,14.147002876442,6.64625290550396,0.608136711306325,8.55516864391312,0.353271042173543,0.675778763695069,2.07175444654842,1.46986950273851,62,0.016086664,0.382842147,0.015142348,0.23849516
"IT-MBo",46.0147,11.0458,1550,"GRA","Dfb",1214,-18.350249624446,-604.92334303489,586.573093410442,5.53432594616474,6.8589988729961,0.607323328466359,7.02143658759124,0.295786993724312,0.428941811449741,1.19291086045125,1.06205608811325,78.8899993896484,-0.027344657,0.046851287,-0.025344873,0.230325462
"IT-Noe",40.6062,8.1517,25,"CSH","Csa",588,-144.537083510501,-606.353192648342,461.816109137842,16.5881302557681,5.49241846551529,0.821192523588099,10.462381284221,0.277665954833359,0.625079712693846,1.20219994458626,1.78190961866561,77.9300003051758,0.054778838,0.002466405,0.056781623,0.002826391
"IT-Ren",46.5869,11.4337,1730,"ENF","Dfc",809.3,-680.608856043096,-994.568441120025,313.959585076929,4.72192737573099,7.05761298617528,0.675973909773953,7.23151181556196,0.255662626987094,0.544748506505867,1.53132670909628,1.0761966030888,102.099998474121,0.008639812,0.578500542,-0.005401165,0.691073082
"IT-SRo",43.7279,10.2844,6,"ENF","Csa",920,-383.455985351316,-1080.22293694386,696.766951592542,15.3003335834437,6.4708377449922,0.423211069530171,8.69871129915381,0.310257224240999,0.684966945162407,1.93794501644079,1.64634649671419,76.8300018310547,-0.035334255,0.001057385,-0.038568975,0.001053451
"NL-Loo",52.1666,5.7436,25,"ENF","Cfb",786,-477.549989254435,-954.848332800751,477.298343546315,10.3430016926774,6.44251898225293,0.719877729602988,7.05813553018187,0.330614881575931,0.723400637063758,1.93115606087135,1.31485589978045,57.4398231506348,-0.025374014,0.034375086,0.034670173,0.006520448
"RU-Fyo",56.4615,32.9221,265,"ENF","Dfb",711,79.8016548097907,-468.270655804134,548.072310613925,5.50118862118453,9.866869421309,0.72956795610433,6.80981694873071,0.285396237839374,0.611086080183997,1.67563701000629,1.03525759230627,56.6130409240723,-0.035865084,0.018232433,-0.028395118,0.125743549
"ZA-Kru",-25.0197,31.4969,359,"SAV","Bsh",547,24.5645279922733,-460.06791926178,484.632447254055,21.9076724935601,3.22304914015409,0.620008004463665,10.9047386980255,0.270693111951583,0.456128619026511,1.01300265944355,1.22969405612954,46.1278533935547,-0.152015735,2.32e-09,-0.06326566,7.36e-06
"IT-Tor",45.8444,7.5781,2160,"GRA","Dfc",920,-53.3990208020822,-378.88073967873,325.481718876648,3.56659101969567,6.66248491964086,0.7840929524192,7.57881529228821,0.208387361016361,0.34270653172678,0.901416537606743,0.668415359477453,85.8399963378906,-0.007805966,0.790523042,0.013844949,0.651610593
"BE-Dor",50.311876,4.968113,250,"GRA","Cfb",581.795,-97.4769541054538,-959.952631189559,862.475677084107,10.1035293689974,6.15492877853217,0.58167706777697,8.68303806917144,0.445718875509951,0.647235439687862,1.45816333652462,1.1564227526124,83.4498748779297,-0.004226001,0.624813819,-0.004104424,0.668083192
"CH-Fru",47.115833,8.537778,982,"GRA","Dfb",1651,-298.756141864221,-912.35786013888,613.601718274661,8.04039474345066,7.20765234115182,0.634855889343677,7.57093251731358,0.412596028600113,0.604985806752047,1.83881503688333,1.28410118381219,82.6319885253906,0.004279951,0.53852718,0.009770168,0.17501115
"CZ-RAJ",49.443724,16.696513,648,"ENF","Dfb",681,-383.809907796587,-859.185069446136,475.37516164955,8.30023571955898,8.57815740149597,0.662898357364048,5.83909880537581,0.270829953171355,0.629061353303186,1.63129726566981,1.12315591369686,124.493309020996,0.016129068,0.37759706,0.029572556,0.124433865
"CZ-Stn",49.035975,17.9699,564,"DBF","Dfb",685,-278.430872105195,-821.369317578759,542.938445473565,8.98118323087432,8.37801424119843,0.696085383636686,5.97823673125527,0.361638678191261,0.655961826544872,2.35591902498838,1.20967255214406,84.7341232299805,-0.011656365,0.304879914,0.001303495,0.922367065
"DE-Obe",50.78666,13.72129,743,"ENF","Dfb",996,-226.057689823698,-858.858946476769,632.801256653071,6.93168692786418,7.7274844884537,0.792809281506245,5.24218428812131,0.281580622623092,0.706213975858283,1.64479758725273,1.1115747671808,89,-0.003432536,0.752588176,0.024086358,0.091008146
"DE-RuR",50.6219,6.3041,514.7,"GRA","Cfb",1033,-118.192484701705,-824.359910137154,706.16742543545,8.58524093522313,6.439987981193,0.695806873549869,7.15743946093915,0.473789227156307,0.688206330812844,2.0013628520554,1.30888883883662,70,0.007828351,0.412515805,0.019391111,0.101922069
"CH-Aws",46.583194,9.790417,1942,"GRA","Dfc",918,-343.08964268401,-843.345162258304,500.255519574291,4.73601530718731,6.40748652085589,1.24788751480249,7.59069397535372,0.162847466496808,0.351048982273674,0.873428716871161,0.77464745017192,98.2575454711914,-2.3e-05,0.998293577,0.01107463,0.328907101
"ES-LJu",36.926594,-2.752115,1613,"OSH","Csb",400,-9.39167239368855,-74.6445736803773,65.2529012866889,11.9658351285554,6.8798850672065,0.552650550886193,6.87101916192883,0.156131753795721,0.36474200017345,0.37733975963964,0.559924322705001,37.0802955627441,-0.128365501,0.000141253,-0.12611282,0.001131762
"FR-FBn",43.24079,5.67865,433,"MF","Csa",700,-561.031217007427,-1048.75988079321,487.728663785781,14.1791805929612,6.51811264903114,0.719903847179937,6.83265180840665,0.312322154163546,0.653080885469436,1.85169037904262,1.66657177466373,62,0.064945929,0.000140777,0.0832994,3.01e-09
"FR-Fon",48.476358,2.780096,104,"DBF","Cfb",720,-591.859569221679,-1088.31903971927,496.45947049759,11.781572907446,6.48965519930657,0.782169161278032,7.50092675605363,0.407642864048184,0.668099171568401,2.54211370996448,1.72008508645343,45,0.004500902,0.729026112,0.053044991,4.32e-05
"GF-Guy",5.2788,-52.9249,48,"EBF","Am",3041,-219.262193000648,-1774.38231014212,1555.12011714147,25.9023911785633,0.834548468903374,0.38394033288273,4.9391753635586,0.474317399649342,0.811933861778792,4.13282318922444,3.36994676739437,23.965991973877,-0.020628717,0.582082762,0.165929699,0.000152
"IL-Yat",31.345045,35.051989,652,"ENF","Csa",285,-128.658815276159,-357.160321648669,228.50150637251,18.3761550155112,6.37791233506911,0.624908652117271,10.3076309034908,0.199036790514001,0.345148008659677,0.591916179220703,0.596915954948961,20.8504829406738,-0.023218024,0.067921713,0.000674074,0.948395608
"SE-Deg",64.182,19.5565,270,"GRA","Dfc",523,-52.3517137599614,-113.894647689586,61.5429339296244,2.57836290697873,9.39947356576815,0.902916427901531,8.82949238386407,0.209691561279432,0.403204797742327,0.92237752057649,0.793380385193915,81.2222213745117,0.021794424,0.066829173,0.024550134,0.022928111
"IT-SR2",43.732022,10.29091,13,"ENF","Csa",920,-222.00947934841,-1243.52357841861,1021.5140990702,15.8001318875228,6.13717672342948,0.396637985760731,7.80952792990142,0.36363842653508,0.779128469237006,2.53584061395502,1.8197634767923,76.8300018310547,0.006414056,0.651132514,0.005986011,0.735895473
"CH-Dav",46.8153,9.8559,1639,"ENF","Dfc",1062,-17.3858085598854,-558.45030742096,541.064498861074,4.40516718912633,7.09208280426661,0.716998184196954,7.90296127896744,0.202076474355777,0.436143667974725,0.889368032095204,0.796840448674924,94.0256500244141,-0.020413942,0.045555004,-0.017635545,0.035829295
"DE-Akm",53.8662,13.6834,-1,"WET","Cfb",558,-46.7188718328051,-558.982556870301,512.263685037497,10.0290060789431,6.63548075662733,0.993876891831831,7.31035720303286,0.278787593821784,0.499805376169501,1.58138630668587,1.21551104006925,244,0.029392315,0.308035591,0.040100604,0.165357013
"DE-Hte",54.2103,12.1761,0.2,"WET","Dfb",645,-155.790161942323,-412.370821690699,256.580659748376,9.82100147680125,6.8776268656682,0.809497680341758,5.51667630057803,0.295211127831552,0.589761017794885,1.7021471673642,1.19918238692797,107,0.084474012,0.018854539,0.120044941,0.000711477
"DE-Hzd",50.96381,13.48978,395,"DBF","Dfb",877,164.911175149702,-444.688007166951,609.599182316653,9.88396812386157,7.49418589343772,1.12818770487068,7.84968218115446,0.316207220909361,0.714139087693842,1.88335029344554,1.20253018527933,79,-0.037547634,0.248694619,-0.017104669,0.623185877
"DE-RuC",50.5031,6.336,610,"OSH","Cfb",1250,144.496932641797,-308.67117700713,453.168109648927,8.39426269922587,6.64272112711054,0.627656800898261,6.55914895947426,0.283421043673173,0.751242787501254,1.76358718829438,1.22761489659163,79,0.025356177,0.226615472,0.015842802,0.325551649
"DE-RuW",50.5049269,6.33096248,610,"ENF","Cfb",1250,-477.308612212623,-1018.19905119314,540.890438980514,8.50362619535519,6.6204959685824,1.14738518767429,6.0338114373393,0.283421043673173,0.751242787501254,1.64037215218333,1.24407185324081,79,0.022336421,0.246558549,0.035603367,0.061381219
"DE-SfS",47.80629,11.32757,619,"WET","Cfb",1127,-397.656239300577,-626.658628321425,229.002389020852,9.18893603395062,7.49678246488181,0.828849865329147,11.219162818992,0.260687290506878,0.588811073833238,1.41410881279991,1.21732591392455,230,0.055551707,0.020408499,0.04140288,0.026759546
"FR-Bil",44.493652,-0.956092,39,"ENF","Cfb",960.1,-406.905726202312,-1040.6005231096,633.694796907286,14.1002856348664,5.7886917022077,0.533666979335366,9.75670791130578,0.311191159270394,0.574524937932556,1.23471418983395,1.47604681650214,62,-0.056734322,6.04e-05,-0.005817456,0.627846717
"SE-Nor",60.0865,17.479504,58,"ENF","Dfb",586,340.224998313058,-264.612159103283,604.837157416342,7.1854612380637,7.74042637041906,0.623036401451145,6.97147137879542,0.29297650159757,0.628251313765508,1.78837498679959,1.16730381714613,68.9576568603516,-0.032289804,0.228176317,0.002648293,0.952041567
"SE-Svb",64.25611,19.7745,267,"ENF","Dfc",614,-113.902940413401,-440.411672550481,326.508732137081,3.38662393113742,8.9499324079805,0.546643845819432,6.19454866180049,0.254988859975355,0.570681357801184,1.52492942748832,0.896430904575299,61.3830261230469,-0.023238667,0.180870275,-0.018783286,0.322436239
"UK-AMo",55.792545,-3.2436917,268,"WET","Cfc",960,-16.6258462619646,-340.884898422233,324.25905216027,7.88496450577755,4.76749738001939,0.65410274106955,7.01414407939767,0.398443312567709,0.614110666322815,1.24771366839385,0.935491585059964,156.634002685547,0.000737075,0.96556601,0.010198391,0.51799235
"CA-Mer",45.4094,-75.5186,70,"WET","Dfb",943,-109.542264626334,-314.366633046391,204.824368420058,6.14797238591302,11.6114811283027,0.700989077581606,12.510628323156,0.271750732499803,0.481071430762829,1.18099059523543,1.0712970080022,134.595522416656,0.091962735,0.0012,0.131530654,7.23e-08
"CA-TPD",42.6353,-80.5577,260,"DBF","Dfb",1036,-222.452996593877,-691.252130323024,468.799133729146,10.0473445520782,10.1394654763105,1.08534814346837,7.24882143820131,0.352956212787362,0.585328935050786,2.29530908905951,1.82361412902457,82.5454559326172,0.017172142,0.344832051,0.091471051,6.37e-06
"US-BZS",64.6963,-148.3235,100,"ENF","Dfd",274,-9.97696629168961,-214.592926468707,204.615960177018,-0.938068298142312,14.9306000645188,1.39341837496338,11.7912193772133,0.173681441022937,0.36116741949569,1.13246395408042,0.843841528044351,78,0.044920193,0.593574222,0.043124865,0.558963461
"US-Cwt",35.0592,-83.4275,690,"DBF","Dfb",1800,-40.585859573864,-706.469121346403,665.883261772538,13.2551681713002,7.25731877173192,0.449963365949602,10.7015826568887,0.428328993271222,0.728966439139061,2.61757795845929,1.4508600961571,45,-0.032747477,0.451557684,0.002022973,0.962764511
"US-Rls",43.1439,-116.7356,1608,"CSH","Bsh",333,-133.430056782572,-343.151997477632,209.72194069506,8.63219631890685,9.62679690872849,0.712063551812423,8.58970970266041,0.121030572824098,0.243083500054004,0.297088581442702,0.317165639823574,16,-0.048740812,0.004385619,-0.015205866,0.201340447
"US-Rws",43.1675,-116.7132,1425,"OSH","Bsk",290,-84.9014676308544,-225.554190420559,140.652722789704,9.68634846840034,9.72011227966319,0.662441671908429,9.34006272084806,0.104330328532245,0.208196061462201,0.217384287119243,0.232880044375693,14,-0.034126558,0.018085289,0.000511018,0.958109365
"BR-Ma2",-2.6091,-60.2093,130,"EBF","Af",2252,-601.760859363921,-1902.05246990945,1300.29161054553,25.7449213367676,1.59207110920813,0.338008698103678,7.12909956198244,0.521716501981474,0.839047799241176,5.19310811214431,2.62581923443449,84.6853443848353,0.023617916,0.400341589,0.048885477,0.105408907
"BR-Sa1",-2.8567,-54.9589,88,"EBF","Am",2074.79,336.716184089926,-1220.876676451,1557.59286054092,26.7535353718007,1.25450360148631,0.321042668118569,6.58283806421047,0.541801110263405,0.855908843488044,4.26851406599046,2.82123018441722,44.2878189086914,-0.072857523,9.72e-05,-0.035962755,0.040145131
"CL-SDF",-41.883,-73.676,50,"EBF","Cfb",2110,-286.892087322275,-983.313747570134,696.421660247857,11.4195243667464,2.89925384869527,0.106404095008459,7.47973237508554,0.363425993670282,0.640648482349188,1.62814747141813,1.55345698709531,164.206787109375,0.03886828,0.294709,-0.05856081,0.2863091
"CL-SDP",-41.879,-73.666,50,"WET","Cfb",2110,91.6636680224336,-306.61624971175,398.279917734185,11.5543556096312,3.3667082478482,0.435434810473314,10.7561803121577,0.369798491039507,0.641181947266101,1.79548719587879,1.37531720126185,182.964340209961,-0.01658747,0.5632431,-0.03296824,0.3826152
