0,site_ID,LAT,LONG,ELEV,IGBP,Climate_class,MAP,NEE,NEE_day,NEE_night,MATA,SSTA,IATA,DRTA,EVI,NDVI,LAI,GPP,SOC,TAS_tot,TAS_totp,TAS,TASp,Tmin1,Tmin2,Tmin3,Tmin4,Tmin5,Tmin6,Tmin7,Tmin8,Tmin9,Tmin10,Tmin11,Tmin12,TS_TA,TSmin_c,TSmin_c_gs,NEE_night_mod_p,NEE_night_mod_f,NEE_night_mod_fa
57,AU-Tum,-35.6566,148.1517,1200,EBF,Cfb,1159.01,-666.4303636,-1557.725801,891.2954371,9.53248649,6.151570981,0.896021748,6.046908514,0.345878013,0.748531321,4.145199453,2.483637077,123.3451004,-0.02207937,0.129664257,-0.008283975,0.610976414,1.055677795,1.473772812,1.540732574,1.31267395,2.081684971,0.987472546,0.77670331,1.250769281,1.22300365,1.421685028,0.832381153,1.344395638,0.653008603,0.832637813,0.736838033,5.849970755,6.232072278,6.131503485
58,BE-Bra,51.3076,4.5198,16,MF,Cfb,750,-166.288564,-749.2666622,582.9780983,10.97053541,6.051532438,0.804565076,6.561212808,0.358924365,0.694204121,2.136142275,1.351740612,79.58034515,0.01723598,0.301472259,0.063891151,0.000154877,0.757289314,0.563003659,1.102710581,0.145641041,0.809962845,0.667472458,1.568571472,1.492234421,1.568058586,1.073919487,0.594871807,1.311648369,0.494744479,0.480536409,0.565401378,4.576946407,4.831420947,4.878734502
78,BE-Dor,50.311876,4.968113,250,GRA,Cfb,581.795,-97.47695411,-959.9526312,862.4756771,10.10352937,6.154928779,0.581677068,8.683038069,0.445718876,0.64723544,1.458163337,1.156422753,83.44987488,0.013769491,0.069613671,0.015402553,0.039579234,0.915604377,0.755384648,1.126007318,0.09516468,0.787765694,0.85391922,1.715458107,1.780805779,1.62857132,0.987399387,0.574285555,1.397875452,0.80947363,0.851177816,0.920332771,6.937097421,7.538857517,7.6350017
59,BE-Vie,50.3049,5.9981,493,MF,Cfb,1062,-478.5766696,-1021.335334,542.7586639,8.46045321,6.51403277,0.900086419,6.285451708,0.347086027,0.70812739,2.020672443,1.301817589,129.024826,0.001483281,0.874257725,0.030131689,0.004216308,1.164395642,0.822124565,1.286959696,0.096483564,0.848717976,0.89186821,1.793772697,1.844835091,1.855458069,1.073479652,0.641904831,1.605714297,0.583335115,0.676946512,0.723903025,4.124334344,4.477481799,4.482292083
109,BR-Ma2,-2.6091,-60.2093,130,EBF,Af,2252,-601.7608594,-1902.266888,1300.506029,25.74492134,1.592071109,0.338008698,7.129099562,0.521716502,0.839047799,5.193108112,2.625819234,84.68534438,0.04670901,0.143557889,0.078366519,0.0215021,0.920072937,1.137802124,1.111209106,1.043223572,0.845714188,0.684981918,0.739121628,0.970696259,1.316044235,1.214066315,1.08805809,1.068498611,1,1.011624082,1.009753617,8.731306379,8.510494527,8.921504904
110,BR-Sa1,-2.8567,-54.9589,88,EBF,Am,2074.79,336.7161841,-1220.876676,1557.592861,26.75353537,1.254503601,0.321042668,6.582838064,0.54180111,0.855908843,4.268514066,2.821230184,44.28781891,-0.086818447,2.26E-05,-0.055737261,0.004311954,1.36791153,1.700512695,1.762417603,1.624981689,1.302636719,1.357069397,1.48146553,1.428718185,1.849157333,2.019707108,1.932966995,1.270330429,1,1.591489601,1.587376296,10.07787616,10.37802293,9.041967962
37,CA-Ca1,49.8673,-125.3336,300,ENF,Cfb,1369,-373.7580182,-1083.818877,710.0608591,8.065500196,6.161815897,0.45007738,5.357712276,0.367616227,0.761267813,2.140919438,1.369223569,114.8103363,0.02939538,0.008107449,0.038403709,0.001805515,1.171501827,2.294432211,1.968498135,2.122710705,2.012014627,2.065494442,1.967619133,2.287838936,1.876483631,1.942710686,2.179413891,1.869597077,0.615413029,1.218431398,1.269932763,5.688852153,6.592676104,6.843433014
2,CA-Ca3,49.5346,-124.9004,171,ENF,Cfb,1676,-455.3792721,-959.0584668,503.6791947,12.33045528,6.675638368,0.936052594,7.000477811,0.483764766,0.857448783,2.771600197,1.447177175,128.279005,-0.033329204,0.041003694,-0.011864473,0.43969609,1.154139233,2.22556777,1.977362585,2.092014742,1.978607941,1.931282043,1.908058739,2.174505806,1.906739902,1.852307796,2.177948666,1.866373706,0.687486394,1.331713218,1.383331272,2.698494293,3.161449263,3.018998699
3,CA-Cbo,44.3167,-79.9333,120,DBF,Dfb,876.34,-300.1998484,-801.2863788,501.0865304,7.359258406,10.05677926,0.718274965,9.292756057,0.306037318,0.526104282,2.218255443,1.261075594,67.82142639,0.011325078,0.530018735,0.046217673,0.028442494,3.947838783,3.618607998,3.158241606,2.267252731,1.886007214,1.849743271,2.319194031,2.61692276,2.191428566,2.236483574,2.279999971,3.195750809,0.777559162,2.045464711,1.75627576,6.945700408,7.217796984,7.362795911
38,CA-Gro,48.2167,-82.1556,340,MF,Dfb,831,-113.4663209,-453.8777994,340.4114785,3.579075587,12.38930135,1.060415327,9.19250709,0.291918607,0.565476151,1.717918042,1.019259642,77.94115998,-0.021830743,0.504046009,0.016339819,0.594312035,3.340146637,3.865494919,3.210109711,2.683662939,2.208058643,2.036336803,2.288644791,2.520879364,2.059780502,2.652234364,2.642637157,4.013553619,0.70962135,1.982300008,1.613285693,3.95107763,4.571146253,4.41295604
36,CA-LP1,55.1119,-122.8414,751,ENF,Dfb,570,-181.7210075,-317.2944729,135.5734654,3.168149451,10.02317773,0.738260629,9.020263575,0.198464359,0.433229477,0.881869438,0.752706148,70.65000153,-0.035464633,0.050060767,0.013498111,0.569942917,0.919706917,2.509670067,3.246007252,2.445640945,2.584029198,2.281684971,2.231941795,2.699999714,2.593333101,2.583882761,3.016556835,2.862710762,0.810634077,2.024907472,2.136249891,2.529018293,3.06189068,2.838487321
35,CA-Man,55.8796,-98.4808,259,ENF,Dfc,520,-2.647120468,-227.2297258,224.5826053,-1.18050736,14.66715171,1.294389055,9.768866138,0.189257877,0.453116642,1.008835988,0.723940764,177.3009249,0.033922385,0.08774886,0.028895586,0.137617153,2.04996376,4.766080856,3.174578476,3.754505253,3.350109911,3.20439558,2.815384865,2.918901062,2.304029369,2.954651976,4.253333092,3.807326126,0.710079247,2.32866112,2.256720228,2.27699888,2.908184578,3.139559059
103,CA-Mer,45.4094,-75.5186,70,WET,Dfb,943,-109.5422646,-314.366633,204.8243684,6.147972386,11.61148113,0.700989078,12.51062832,0.271750732,0.481071431,1.180990595,1.071297008,134.5955224,0.092010496,0.001184869,0.131770487,6.27E-08,3.932527542,3.261978149,3.091721535,2.396776533,1.989157486,2.220292854,2.305714226,2.489377594,2.059194374,1.980366373,2.807838774,3.821465302,0.404861974,1.091656695,0.901538539,1.534826563,1.69964725,1.846647324
32,CA-Oas,53.6289,-106.1978,530,DBF,Dfc,428.53,-129.5741244,-467.1110554,337.536931,1.918898563,12.81362665,0.937533834,8.176846631,0.254007803,0.445859197,1.745652071,0.910214577,85.7424686,-0.007662039,0.646383756,0.002510056,0.850662813,1.016630173,4.263516235,3.801391983,3.034065914,3.205421162,2.751648331,2.679487038,3.227692604,2.593113518,3.183956099,2.936776543,3.030622101,0.552265405,1.644108915,1.596597411,5.543109372,6.324367746,6.247471849
39,CA-Obs,53.9872,-105.1178,628.94,ENF,Dfc,405.6,-55.93100155,-316.8042681,260.8732665,1.208714947,12.99762114,1.098797828,8.735291964,0.210746177,0.489060244,1.030377748,0.802898119,115.2532966,-0.019168251,0.324152944,-0.034573633,0.058230624,1.020366287,4.349231339,3.527619171,3.242270994,3.242417622,2.674432278,2.584175491,3.171281815,2.503516388,3.141611719,3.159707069,3.04864502,0.399210584,1.186496277,1.150979534,4.187200843,4.705701813,4.603020233
40,CA-Ojp,53.9163,-104.692,579,ENF,Dfc,430.5,-38.11573117,-234.6029708,196.4872397,1.422205855,13.13987085,0.967887007,9.271413647,0.220409053,0.49316232,1.126613511,0.771493625,67.24505414,-0.014168931,0.163131576,0.012126706,0.368625664,1.10256424,4.277729034,3.51399231,3.160586119,3.269377327,2.678754425,2.654798126,3.058827972,2.420512772,3.145274687,3.141025162,3.068497849,0.630480209,1.864747147,1.793141533,2.913691865,3.561196044,3.47185682
34,CA-TP3,42.7068,-80.3483,184,ENF,Dfb,1036,-547.8418281,-996.825181,448.983353,9.19332656,10.12005276,0.78360179,7.754000587,0.340775012,0.619047329,2.205274761,1.475515873,87.1240342,0.009433826,0.332382265,0.029395276,0.007779306,3.548205185,3.250696087,2.709523916,2.010842466,1.689450455,1.750842667,2.242344284,2.462197495,2.13736248,1.861392212,2.280293083,2.880366421,0.828511578,1.990051445,1.685875361,4.316421031,5.23900067,5.322989188
33,CA-TP4,42.7102,-80.3574,184,ENF,Dfb,1036,-192.6207748,-736.5534224,543.9326476,9.342187458,10.17544123,0.784144302,7.468774826,0.36699535,0.658590351,2.403910765,1.457332049,87.33921272,0.020965454,0.050517987,0.047952525,2.29E-05,3.506959629,3.276996326,2.664468908,2.054578733,1.687179375,1.792454338,2.211648178,2.442710686,2.147838783,1.900512791,2.255604362,2.901465225,0.818967412,1.968416657,1.687152795,5.836073247,6.992770011,7.244544366
104,CA-TPD,42.6353,-80.5577,260,DBF,Dfb,1036,-222.4529966,-691.2521303,468.7991337,10.04734455,10.13946548,1.085348143,7.248821438,0.352956213,0.585328935,2.295309089,1.823614129,82.54545593,0.017455492,0.3370115,0.091572259,7.02E-06,3.444248962,3.236849785,2.746080637,2.030036497,1.691575241,1.803370476,2.281684875,2.486593819,2.221831322,1.924761677,2.279560328,2.896629953,0.751833706,1.819639535,1.640752316,3.982239384,4.285921192,4.410445254
84,CH-Aws,46.583194,9.790417,1942,GRA,Dfc,918,-343.0896427,-843.3451623,500.2555196,4.736015307,6.407486521,1.247887515,7.590693975,0.162847466,0.351048982,0.873428717,0.77464745,98.25754547,5.73E-05,0.995754998,0.011029618,0.330668736,2.7870327,2.693040466,1.976043987,0.332087898,0.998754597,0.947985327,2.261538506,2.301172209,2.184615374,1.654798532,0.989670372,2.572454166,0.7568967,1.368670703,1.29298836,6.900702968,7.694011388,7.694581441
92,CH-Dav,46.8153,9.8559,1639,ENF,Dfc,1062,-17.38580856,-558.4503074,541.0644989,4.405167189,7.092082804,0.716998184,7.902961279,0.202076474,0.436143668,0.889368032,0.796840449,94.02565002,-0.02039791,0.04575886,-0.01777105,0.034412692,2.849890137,2.576336956,1.967692566,0.419194221,0.992454183,1.035531187,2.298974323,2.261611652,2.20813179,1.652893758,1.12923069,2.587106228,0.615032334,1.126485416,0.957657292,2.854201332,3.289297746,3.225667429
79,CH-Fru,47.115833,8.537778,982,GRA,Dfb,1651,-298.7561419,-912.3578601,613.6017183,8.040394743,7.207652341,0.634855889,7.570932517,0.412596029,0.604985807,1.838815037,1.284101184,82.63198853,0.004339822,0.533523552,0.009804798,0.173823903,2.505714273,2.299194145,1.89809525,0.353479815,0.863370228,0.682271194,1.980073357,2.025714493,1.90520134,1.446226978,1.105934048,2.421025658,0.808073943,1.312197659,1.061717496,7.235017322,7.943221069,7.979905217
60,CH-Lae,47.4783,8.3644,689,MF,Cfb,1100,-230.3016917,-775.6492879,545.3475963,8.915765745,7.766882903,1.374109694,6.149768178,0.402360013,0.6917319,2.704207068,1.473129309,79.23197937,0.056037398,7.02E-08,0.058002674,2.13E-08,2.334432268,2.074798512,1.861831522,0.413333321,0.847985268,0.649523735,1.957728577,2.018900871,1.921977997,1.470109844,1.102271008,2.343003654,0.628703905,0.995232863,0.956418994,5.270111169,5.34744937,5.641866361
61,CZ-BK1,49.5021,18.5369,875,ENF,Dfb,1316,-706.6733244,-1175.156682,468.4833579,7.291310547,7.844266283,1.003470324,5.894623387,0.302740047,0.694963782,1.84740988,1.125236073,235.81073,0.032928944,0.025902233,0.05342783,0.001702631,2.720512772,2.3594872,2.381904745,1.10446887,1.555311394,1.300512886,1.784175491,1.731941414,2.265274906,1.639560509,0.668131888,2.637435913,0.603207028,1.113355196,0.995219874,2.773934274,2.990716813,3.090350871
80,CZ-RAJ,49.443724,16.696513,648,ENF,Dfb,681,-383.8099078,-859.1850694,475.3751616,8.30023572,8.578157401,0.662898357,5.839098805,0.270829953,0.629061353,1.631297266,1.123155914,124.493309,0.015903718,0.384261866,0.029587294,0.124254546,2.535677576,2.014065957,2.230989027,0.779194069,1.464908791,1.181025887,1.841465187,1.835311317,2.173333168,1.596923065,0.718754601,2.348278332,0.578627778,0.999093775,0.956436311,3.733334368,3.958070716,4.01873673
81,CZ-Stn,49.035975,17.9699,564,DBF,Dfb,685,-278.4308721,-821.3693176,542.9384455,8.981183231,8.378014241,0.696085384,5.978236731,0.361638678,0.655961827,2.355919025,1.209672552,84.73412323,-0.011739842,0.300939477,0.001496075,0.910773807,2.70161171,2.285640907,2.261318731,0.897948742,1.475751019,1.323003578,1.862271118,1.917728996,2.401977921,1.727912235,0.639633691,2.547032928,0.655704176,1.204410084,1.213647133,4.475099175,4.648132832,4.582375684
62,CZ-wet,49.0247,14.7704,426,WET,Dfb,604,70.61511283,-389.1164304,459.7315432,8.886855229,7.664662047,0.735638213,10.81322534,0.375033785,0.584404436,1.402278635,1.132827546,76.55177307,0.013212247,0.432543276,0.006737828,0.74529744,2.40065937,1.936043954,2.007326031,0.450329638,1.256044006,0.967179489,1.742417526,1.898461533,2.296996307,1.76249094,0.690695953,2.189084244,0.721225374,1.177864952,0.922696201,5.517536361,6.028903188,6.102850709
93,DE-Akm,53.8662,13.6834,-1,WET,Cfb,558,-46.71887183,-558.9825569,512.263685,10.02900608,6.635480757,0.993876892,7.310357203,0.278787594,0.499805376,1.581386307,1.21551104,244,0.029278585,0.30985324,0.039474193,0.173112347,1.626227093,1.408864522,1.82747252,0.868131828,1.308351517,1.44967041,1.603077126,1.591282463,1.641978073,1.694652176,0.942417669,1.552454209,0.633455055,0.924558249,0.94393937,4.850692201,5.557187679,5.712914857
63,DE-Gri,50.95,13.5126,385,GRA,Cfb,901,-84.30589712,-629.3600699,545.0541728,8.805153606,7.493733116,0.726677589,10.00271773,0.350130309,0.674273162,2.345711073,1.246221999,89,0.021825979,0.210237781,0.015328397,0.253318183,2.060805941,1.628278375,2.007838821,0.484249115,1.182197666,1.154138947,1.817289162,1.775311661,1.928790855,1.519267464,0.7421978,1.886080647,0.76142276,1.153964521,0.833277407,5.568357227,6.149638378,6.262505691
64,DE-Hai,51.0792,10.4522,430,DBF,Cfb,720,-504.9540476,-945.6854347,440.7313872,8.575965303,7.524233865,0.865467475,5.644504684,0.377834505,0.684471695,2.145898905,1.146030609,79,-0.033032953,0.00151061,0.001598966,0.84888331,1.805201483,1.325128174,1.892600751,0.481465292,1.232967091,1.224542046,1.899780273,1.848424721,2.044908714,1.547252846,0.784102535,1.8335531,0.673786318,1.00618347,1.14627813,3.874579149,4.133486438,3.979898326
94,DE-Hte,54.2103,12.1761,0.2,WET,Dfb,645,-155.7901619,-412.3708217,256.5806597,9.821001477,6.877626866,0.80949768,5.516676301,0.295211128,0.589761018,1.702147167,1.199182387,107,0.084912528,0.018086303,0.120276611,0.000705115,1.332325995,1.384432286,1.824175864,0.936630249,1.353388071,1.630769253,1.564835072,1.515934467,1.482051373,1.544963717,0.960164726,1.343498111,0.574822975,0.808257109,0.883759511,3.415146464,3.587343235,3.866903805
95,DE-Hzd,50.96381,13.48978,395,DBF,Dfb,877,164.9111751,-444.6880072,609.5991823,9.883968124,7.494185893,1.128187705,7.849682181,0.316207221,0.714139088,1.883350293,1.202530185,79,-0.036975701,0.255097843,-0.016960937,0.625693722,2.033113527,1.521684957,1.997362661,0.521758175,1.178461552,1.187325859,1.79611721,1.782930756,1.910915756,1.533333302,0.733846188,1.873992729,0.639106316,0.962432475,0.936632063,7.189914551,7.985860803,7.71402385
82,DE-Obe,50.78666,13.72129,743,ENF,Dfb,996,-226.0576898,-858.8589465,632.8012567,6.931686928,7.727484488,0.792809282,5.242184288,0.281580623,0.706213976,1.644797587,1.111574767,89,-0.003526921,0.745950904,0.024396427,0.087094408,2.093626356,1.634725428,2.008205056,0.516410327,1.209377193,1.19025631,1.78959713,1.797216225,1.929011059,1.532380772,0.739267409,1.948351598,0.711027414,1.089556182,0.998811278,5.412464173,6.025436447,6.00424781
96,DE-RuC,50.5031,6.336,610,OSH,Cfb,1250,144.4969326,-308.671177,453.1681096,8.394262699,6.642721127,0.627656801,6.559148959,0.283421044,0.751242788,1.763587188,1.227614897,79,0.025581064,0.223670455,0.015444112,0.339379961,1.229450536,0.84886446,1.341538429,0.154725313,0.942564201,0.951281929,1.798461342,1.969670486,1.875971031,1.173113632,0.63025651,1.552893806,0.784300813,0.945657089,0.832322683,4.32057519,4.791906708,4.89502847
83,DE-RuR,50.6219,6.3041,514.7,GRA,Cfb,1033,-118.1924847,-824.3599101,706.1674254,8.585240935,6.439987981,0.695806874,7.157439461,0.473789227,0.688206331,2.001362852,1.308888839,70,0.007807575,0.413661705,0.018877603,0.11099875,1.196483517,0.82747252,1.387179494,0.152380943,0.878461647,0.9815382,1.880952263,1.813699532,1.821392059,1.153553104,0.647325993,1.655091548,0.724818876,0.869512705,0.741203547,6.606490684,7.027388156,7.068173568
97,DE-RuW,50.5049269,6.33096248,610,ENF,Cfb,1250,-477.3086122,-1018.199051,540.890439,8.503626195,6.620495969,1.147385188,6.033811437,0.283421044,0.751242788,1.640372152,1.244071853,79,0.022455876,0.244582476,0.035344093,0.063353249,1.237582421,0.854285717,1.342344284,0.171501827,0.915751076,0.955457687,1.806666565,1.942564201,1.841465759,1.1865201,0.641831541,1.574871826,0.532093448,0.641653396,0.62395934,5.060288454,5.630990407,5.71044467
98,DE-SfS,47.80629,11.32757,619,WET,Cfb,1127,-397.6562393,-626.6586283,229.002389,9.188936034,7.496782465,0.828849865,11.21916282,0.260687291,0.588811074,1.414108813,1.217325914,230,0.05549559,0.020800457,0.041537291,0.026437441,2.7232234,2.304615402,1.981025672,0.462710857,1.245641041,0.81164856,2.019780731,2.001612091,2.380220032,1.901392078,1.100219774,2.538754606,0.41570457,0.743794006,0.670972182,3.77400789,3.994332096,4.145868837
65,DE-Tha,50.9626,13.5651,385,ENF,Cfb,843,-476.4726062,-882.3073245,405.8347183,9.402551341,7.786198557,0.983414472,6.327494829,0.326846296,0.725934082,2.003417007,1.169481732,79,-0.010826534,0.031370785,0.010533414,0.151750263,2.064981651,1.538608027,2.062564039,0.564395523,1.215018272,1.186739922,1.824028969,1.765421486,1.930842209,1.536630058,0.692893887,1.917362714,0.701470303,1.06971221,1.050581493,3.625958244,3.885455505,3.841512111
66,DK-Sor,55.4859,11.6446,40,DBF,Cfb,660,-228.2771997,-912.3899291,684.1127294,8.761278262,6.46255963,0.794071683,5.091216518,0.394364844,0.631647917,2.57819245,1.506749902,91.67423248,-0.028739344,1.08E-05,-0.019736597,0.007768897,1.200952387,1.291355276,1.769010973,0.944249058,1.345714569,1.606300354,1.594578743,1.575750542,1.394359016,1.501025963,1.071282101,1.21890111,0.574062646,0.789981006,0.866208189,7.420523125,8.041344572,7.843632445
85,ES-LJu,36.926594,-2.752115,1613,OSH,Csb,400,-9.391672394,-74.64457368,65.25290129,11.96583513,6.879885067,0.552650551,6.871019162,0.156131754,0.364742,0.37733976,0.559924323,37.08029556,-0.128619043,0.000148378,-0.126256459,0.001165899,1.601685023,1.824835205,0.90615387,0.615677643,0.950769234,1.150769234,1.571722031,1.868791199,2.143296814,1.388791275,1.825860691,1.746007276,0.990340188,1.452033441,1.406030144,0.390831441,0.391291667,0.326559113
67,FI-Hyy,61.8474,24.2948,181,ENF,Dfc,709,-214.3829499,-519.4189779,305.036028,4.800296168,9.113926888,1.143711177,6.323518454,0.244738757,0.505136386,1.943659673,1.074986145,44.4856987,-0.033550306,2.67E-12,-0.012176135,0.013820695,3.755384636,2.35809536,3.570109653,2.381465244,2.117069674,2.439780426,1.698974228,1.984908485,1.319780159,2.467619085,2.177435875,2.838974333,0.682527679,1.655675483,1.418312836,3.743064021,4.28378054,4.084711466
68,FI-Sod,67.3624,26.6386,180,ENF,Dfc,500,98.69725862,-99.03957884,197.7368375,1.025611555,10.62006747,0.602333311,8.273908543,0.142862776,0.331580344,0.518258003,0.48274721,133.773407,0.005294499,0.691000041,0.005998622,0.740643486,3.354432297,3.019927406,3.832381058,1.663882637,2.333186913,2.736996365,1.851208878,1.90490818,1.667985201,2.636556768,2.87304039,2.563150215,0.759425775,1.926261727,1.426823532,3.129783499,3.857344169,3.886594105
99,FR-Bil,44.493652,-0.956092,39,ENF,Cfb,960.1,-406.9057262,-1040.600523,633.6947969,14.10028563,5.788691702,0.533666979,9.756707911,0.311191159,0.574524938,1.23471419,1.476046817,62,-0.056523147,6.52E-05,-0.005380545,0.653185306,1.038827801,1.533186865,0.761684799,0.050915718,0.630329514,0.451794624,1.487765121,1.889743614,1.622417641,0.947912025,0.682564068,1.532234526,0.706203762,0.743242756,0.743628703,3.996210565,4.182030332,4.009893246
86,FR-FBn,43.24079,5.67865,433,MF,Csa,700,-561.031217,-1048.759881,487.7286638,14.17918059,6.518112649,0.719903847,6.832651808,0.312322154,0.653080885,1.851690379,1.666571775,62,0.064939954,0.000140405,0.082997887,3.28E-09,1.25267396,1.614212465,0.935311413,0.115897369,0.960952568,0.809011078,1.78183136,2.202783966,1.918168831,1.0886446,0.714139175,1.516703224,0.690010942,0.857357571,0.894913505,2.217761431,2.348911422,2.489464527
87,FR-Fon,48.476358,2.780096,104,DBF,Cfb,720,-591.8595692,-1088.31904,496.4594705,11.78157291,6.489655199,0.782169161,7.500926756,0.407642864,0.668099172,2.54211371,1.720085086,45,0.004434613,0.733276168,0.053028611,4.18E-05,1.003589797,0.930109835,0.994871807,-0.028351593,0.700952339,0.651648521,1.820732498,2.008718109,1.755457878,0.731282043,0.344102478,1.340659285,0.636696119,0.650160809,0.863764102,5.489358746,5.667501574,5.689252339
69,FR-Pue,43.7413,3.5957,270,EBF,Csa,883,-265.3477035,-732.8361426,467.4884391,14.14700288,6.646252906,0.608136711,8.555168644,0.353271042,0.675778764,2.071754447,1.469869503,62,0.016065247,0.383390732,0.015097144,0.239611239,1.381391811,1.744468737,0.865567684,0.047032738,0.86461525,0.753919411,1.856703186,2.391501617,1.907839203,1.05230751,0.80388298,1.646959639,0.873041932,1.114306326,0.900749809,2.463250833,2.570448703,2.607915503
88,GF-Guy,5.2788,-52.9249,48,EBF,Am,3041,-219.262193,-1774.38231,1555.120117,25.90239118,0.834548469,0.383940333,4.939175364,0.4743174,0.811933862,4.132823189,3.369946767,23.96599197,-0.020437122,0.585729027,0.166101912,0.000150506,1.059780121,1.250842285,1.117069244,1.367032242,1.164175797,1.244908905,1.105054855,1.287692261,1.310109711,1.290475845,1.280073547,1.183663177,0.311303822,0.380332279,0.379910581,8.607001292,8.588118462,8.521696109
89,IL-Yat,31.345045,35.051989,652,ENF,Csa,285,-128.6588153,-357.1603216,228.5015064,18.37615502,6.377912335,0.624908652,10.3076309,0.199036791,0.345148009,0.591916179,0.596915955,20.85048294,-0.023361662,0.065953699,0.0006645,0.949109932,1.094066048,0.743369961,0.310109901,1.432381248,1.161611938,1.329743576,1.253479767,1.387619019,1.349230194,1.56717968,1.513406372,1.033626556,1.035566878,1.223334507,0.965121197,2.079714403,2.21180124,2.162490116
70,IT-MBo,46.0147,11.0458,1550,GRA,Dfb,1214,-18.35024962,-604.923343,586.5730934,5.534325946,6.858998873,0.607323328,7.021436588,0.295786994,0.428941811,1.19291086,1.062056088,78.88999939,-0.027209574,0.047717713,-0.025425383,0.230322032,2.705640984,2.264249134,1.509303975,0.197948742,0.936923218,0.755750847,2.082344818,2.17692318,2.397509384,1.578315163,0.538901126,2.230183125,0.939152646,1.516261453,0.964754146,6.27495355,6.827229353,6.650342677
71,IT-Noe,40.6062,8.1517,25,CSH,Csa,588,-144.5370835,-606.3531926,461.8161091,16.58813026,5.492418466,0.821192524,10.46238128,0.277665955,0.625079713,1.202199945,1.781909619,77.93000031,0.054981589,0.002384243,0.056355514,0.003058118,1.285836538,1.449938933,0.873626709,0.311111132,0.786691348,0.944688797,1.458730698,1.97167333,1.901464462,1.081685066,0.683150291,1.295115789,0.69470054,0.813014589,0.666360665,2.568448873,2.673682782,2.773456592
72,IT-Ren,46.5869,11.4337,1730,ENF,Dfc,809.3,-680.608856,-994.5684411,313.9595851,4.721927376,7.057612986,0.67597391,7.231511816,0.255662627,0.544748507,1.531326709,1.076196603,102.0999985,0.008815194,0.5718139,-0.005636738,0.678470105,2.801172113,2.520366383,1.852380848,0.27663002,1.029890203,0.844908428,2.048205376,2.001025581,2.411062288,1.695824146,0.815750921,2.487326145,0,0,0,0,0,0
91,IT-SR2,43.732022,10.29091,13,ENF,Csa,920,-222.0094793,-1243.523578,1021.514099,15.80013189,6.137176723,0.396637986,7.80952793,0.363638427,0.779128469,2.535840614,1.819763477,76.83000183,0.006524039,0.645720902,0.00589061,0.7393264,1.563736379,1.58782059,1.085988998,0.317124605,1.028022051,1.017215729,1.913827419,2.26913929,2.21108079,1.409890652,0.500640869,1.427747428,0,0,0,0,0,0
73,IT-SRo,43.7279,10.2844,6,ENF,Csa,920,-383.4559854,-1080.222937,696.7669516,15.30033358,6.470837745,0.42321107,8.698711299,0.310257224,0.684966945,1.937945016,1.646346497,76.83000183,-0.03530853,0.001070875,-0.027381544,0.019318121,1.563736379,1.58782059,1.085988998,0.317124605,1.028022051,1.017215729,1.913827419,2.26913929,2.21108079,1.409890652,0.500640869,1.427747428,0,0,0,0,0,0
77,IT-Tor,45.8444,7.5781,2160,GRA,Dfc,920,-53.3990208,-378.8807397,325.4817189,3.56659102,6.66248492,0.784092952,7.578815292,0.208387361,0.342706532,0.901416538,0.668415359,85.83999634,-0.060704246,0.022516361,-0.028715165,0.295010506,2.460219622,2.51890111,1.68417592,0.138388276,0.835164857,0.773406541,1.867326069,2.231355572,1.920952463,1.265274715,0.846959817,2.172674131,0,0,0,0,0,0
74,NL-Loo,52.1666,5.7436,25,ENF,Cfb,786,-477.5499893,-954.8483328,477.2983435,10.34300169,6.442518982,0.71987773,7.05813553,0.330614882,0.723400637,1.931156061,1.3148559,57.43982315,-0.025331325,0.034442837,0.034592701,0.006609785,0.875531137,0.612600732,1.195018339,0.201025677,0.84190464,0.770915222,1.496996117,1.308424568,1.492747307,1.146007633,0.749596977,1.378827858,0,0,0,0,0,0
75,RU-Fyo,56.4615,32.9221,265,ENF,Dfb,711,79.80165481,-468.2706558,548.0723106,5.501188621,9.866869421,0.729567956,6.809816949,0.285396238,0.61108608,1.67563701,1.035257592,56.61304092,-0.035660795,0.018911565,-0.04413347,0.042581162,2.882124615,2.260439491,2.955311298,2.71714282,1.680879402,2.603369713,1.852527237,1.637801933,1.575604343,1.6616117,1.273333311,2.734725237,0,0,0,0,0,0
90,SE-Deg,64.182,19.5565,270,GRA,Dfc,523,-52.35171376,-113.8946477,61.54293393,2.578362907,9.399473566,0.902916428,8.829492384,0.209691561,0.403204798,0.922377521,0.793380385,81.22222137,0.021781705,0.067320611,0.024517025,0.023270383,3.238315201,2.996923065,3.677069855,1.699120879,2.489230728,2.441025639,1.665494728,1.927106476,1.482344151,2.3421978,2.041758251,2.097435856,0,0,0,0,0,0
100,SE-Nor,60.0865,17.479504,58,ENF,Dfb,586,340.2249983,-264.6121591,604.8371574,7.185461238,7.74042637,0.623036401,6.971471379,0.292976502,0.628251314,1.788374987,1.167303817,68.95765686,-0.031657553,0.236958538,0.002514974,0.954801697,2.851648378,2.331501865,2.987765455,1.715457821,1.696117306,2.144468689,1.801391411,1.951502228,1.547618675,2.141172266,1.765860796,1.813626337,0,0,0,0,0,0
101,SE-Svb,64.25611,19.7745,267,ENF,Dfc,614,-113.9029404,-440.4116726,326.5087321,3.386623931,8.949932408,0.546643846,6.194548662,0.25498886,0.570681358,1.524929427,0.896430905,61.38302612,-0.02341658,0.175776888,-0.018469588,0.330736446,3.350622559,3.050036621,3.615238285,1.938901162,2.454725313,2.480073452,1.867911911,1.809157372,1.542637348,2.330036688,2.096923018,2.120439148,0,0,0,0,0,0
102,UK-AMo,55.792545,-3.2436917,268,WET,Cfc,960,-16.62584626,-340.8848984,324.2590522,7.884964506,4.76749738,0.654102741,7.014144079,0.398443313,0.614110666,1.247713668,0.935491585,156.6340027,0.018803869,0.434553815,0.041389818,0.060624624,0.225494486,0.635897446,0.820732522,0.472966957,0.690036392,0.633186531,1.563369942,1.374139214,0.965421391,1.097509289,0.585347986,0.890256417,0,0,0,0,0,0
31,US-Bar,44.0646,-71.2881,272,DBF,Dfb,1245.77,-183.1758899,-592.5895303,409.4136405,7.52986439,10.14496199,0.58312373,9.803626716,0.387836521,0.655113031,2.262319668,1.272860499,69.14467397,0.022187658,0.366754356,0.048980918,0.105671984,3.098901176,2.942344475,2.840805912,2.214139223,1.755091667,2.019047356,2.232161522,2.382637024,1.772307491,1.651355314,2.361465216,2.696556568,0,0,0,0,0,0
44,US-BZB,64.6955,-148.3208,100,WET,Dfd,274,25.04507779,-147.606625,172.6517028,-1.539408274,14.93382051,1.591506004,13.04604046,0.173610722,0.360845194,0.643543462,0.669770631,78,0.04631792,0.32007341,0.075349321,0.172798031,3.016556168,1.043663025,3.517362595,1.937582588,1.599194288,1.712894249,2.110915565,2.257655811,1.988717985,0.94593401,3.168498802,2.342563629,0,0,0,0,0,0
45,US-BZF,64.7013,-148.3121,95,WET,Dfd,274,41.21709943,-154.7445154,195.9616148,-1.183985256,14.8273452,1.564425398,12.0930751,0.195722752,0.389992774,0.851519518,0.752174907,91,-0.035940755,0.600383131,-0.016410093,0.81083682,3.016556168,1.043663025,3.517362595,1.937582588,1.599194288,1.712894249,2.110915565,2.257655811,1.988717985,0.94593401,3.168498802,2.342563629,0,0,0,0,0,0
105,US-BZS,64.6963,-148.3235,100,ENF,Dfd,274,-9.976966292,-214.5929265,204.6159602,-0.938035049,14.93062128,1.393349031,11.79123582,0.173681441,0.361167419,1.132463954,0.843841528,78,0.028268949,0.730658094,0.043181652,0.558599142,3.016556168,1.043663025,3.517362595,1.937582588,1.599194288,1.712894249,2.110915565,2.257655811,1.988717985,0.94593401,3.168498802,2.342563629,0,0,0,0,0,0
53,US-Ced,39.8379,-74.3791,58,CSH,Cfa,1138,-81.89364433,-716.8616897,634.9680453,12.02906544,9.123204938,0.711612046,9.751491014,0.345113921,0.696850985,2.277825488,1.573939618,28,0.007720458,0.722508105,0.013647505,0.445498961,2.360219765,2.191355181,2.085421228,1.394798565,1.379780388,1.351942062,1.796263504,1.834725952,1.915458488,1.408571053,2.208937693,2.131062269,0,0,0,0,0,0
11,US-CMW,31.6637,-110.1777,1199,DBF,Bsh,288,-369.4642007,-670.4184077,300.954207,17.01686845,7.434365108,0.398825588,18.12271666,0.165785473,0.312382748,0.524831265,0.452409511,12,-0.096794742,1.45E-12,-0.033911284,0.00879374,0.4951648,0.692161131,0.137729073,0.269304276,0.967765808,0.735824585,0.979340363,1.303297043,1.530255508,1.75875473,0.890329552,0.698315001,0,0,0,0,0,0
106,US-Cwt,35.0592,-83.4275,690,DBF,Dfb,1800,-40.58585957,-706.4691213,665.8832618,13.25516817,7.257318772,0.449963366,10.70158266,0.428328993,0.728966439,2.617577958,1.450860096,45,-0.03221802,0.458109486,0.00031984,0.994116345,1.586666703,1.028644669,1.222857165,0.696336842,1.096703339,1.211941338,1.954725266,1.832674026,1.959926796,1.461245346,2.280805826,1.511794853,0,0,0,0,0,0
14,US-GLE,41.3665,-106.2399,3197,ENF,Dfc,1200,-41.06721474,-303.7133127,262.6460979,0.332191423,9.374343379,0.758923001,6.965512273,0.192594687,0.394892674,0.43781156,0.412233439,34,0.020993322,0.367878021,0.075158937,0.00869923,1.880146408,3.30681324,2.388791275,2.479780388,2.73765564,2.711941338,2.376849651,3.097802162,2.692893744,3.361318588,2.491208553,2.585274506,0,0,0,0,0,0
4,US-Ha1,42.5378,-72.1715,340,DBF,Dfb,1071,-255.8035223,-728.151619,472.3480967,8.297445324,9.80788058,0.876678293,8.105718341,0.40356279,0.704857136,2.480657874,1.309982489,76,0.026698476,0.033941516,0.047932914,3.01E-05,2.858827972,2.583370018,2.528937769,1.920512843,1.791208839,1.809890175,2.041392136,2.313699341,1.797216034,1.439926624,2.127399302,2.380659199,0,0,0,0,0,0
5,US-Ha2,42.5393,-72.1779,360,ENF,Dfb,1071,-456.6123194,-777.3563094,320.7439901,8.439072822,9.896752583,0.453299542,8.095722153,0.40356279,0.704857136,2.556712065,1.317510843,110.2676788,0.020891321,0.340799599,0.048540277,0.041781369,2.858827972,2.583370018,2.528937769,1.920512843,1.791208839,1.809890175,2.041392136,2.313699341,1.797216034,1.439926624,2.127399302,2.380659199,0,0,0,0,0,0
12,US-Ho1,45.2041,-68.7402,60,ENF,Dfb,1070,-299.3573364,-764.2698027,464.9124663,6.617698272,10.38945917,0.611917349,11.83988483,0.386299613,0.741637896,2.287593844,1.276349204,77.08237024,0.021286091,0.144340384,0.046787686,0.000224002,2.959560585,3.179707336,3.050403023,2.582051325,2.067985344,2.276629829,2.52754612,2.523296738,1.968131638,1.758534765,2.101318645,2.49626379,0,0,0,0,0,0
13,US-Ho2,45.2091,-68.747,61,ENF,Dfb,1064,-324.2129436,-818.8030833,494.5901397,7.692434645,10.40290921,1.16021967,12.08461371,0.388248776,0.73354611,2.402239198,1.280136583,77.82012514,-0.003793199,0.597825886,-0.003330775,0.622295744,2.97010994,3.153040504,3.080292892,2.587765598,2.059633636,2.275091362,2.537069702,2.516849899,1.968424797,1.78468852,2.097509098,2.522857189,0,0,0,0,0,0
27,US-IB2,41.8406,-88.241,226.5,GRA,Dfa,930.25,-205.2316686,-635.2071453,429.9754768,9.059868555,10.91359116,0.988658346,10.13887014,0.310126467,0.48691283,1.234162812,1.096204598,95.87462709,0.008178018,0.565175891,0.026735797,0.074606524,2.379633522,3.428351688,2.56249094,1.539780188,1.41619072,1.539707184,2.327545166,2.42857132,2.0026371,2.045347977,1.767912102,2.35963378,0,0,0,0,0,0
24,US-ICh,68.6068,-149.2958,940,OSH,ET,318,9.131260073,-51.5939879,60.72524797,-6.722277403,12.73572221,1.186930185,7.387243734,0.099543512,0.172997456,0.690528112,0.538789719,128,-0.003913243,0.832695895,-0.009992579,0.592516474,4.072308731,1.452893448,3.267912292,1.668865204,1.471941376,1.993333292,2.137362766,2.321098804,2.10446887,1.310476303,3.455091095,2.994066238,0,0,0,0,0,0
25,US-ICs,68.6058,-149.311,920,WET,ET,318,82.01257147,-27.15501714,109.1675886,-6.53046965,12.9340777,1.30793692,8.273893886,0.100842194,0.17364223,0.763480374,0.581711018,128,-0.010007538,0.744162605,0.00857843,0.794641139,4.072308731,1.452893448,3.267912292,1.668865204,1.471941376,1.993333292,2.137362766,2.321098804,2.10446887,1.310476303,3.455091095,2.994066238,0,0,0,0,0,0
23,US-ICt,68.6063,-149.3041,930,OSH,ET,318,-2.78557041,-71.19916536,68.41359495,-5.46855087,11.9086137,0.850603751,6.804573507,0.100842194,0.17364223,0.738432516,0.546040891,128,-0.090758224,0.498988023,0.007141655,0.926332618,4.072308731,1.452893448,3.267912292,1.668865204,1.471941376,1.993333292,2.137362766,2.321098804,2.10446887,1.310476303,3.455091095,2.994066238,0,0,0,0,0,0
41,US-Jo2,32.5849,-106.6032,1469,OSH,Bwk,282.3,-175.5459749,-245.8669089,70.32093403,17.62175015,8.214978581,0.441738431,12.31112416,0.112837485,0.171254279,0.21498891,0.215734894,9,-0.104599935,0.001997538,-0.005705449,0.805755212,0.740219831,0.940366316,0.311941314,0.578754616,1.268571472,0.980659103,1.263003922,1.278388214,1.567692375,1.740879154,1.061098909,1.030256414,0,0,0,0,0,0
46,US-KL2,42.4768,-85.4468,258.3,GRA,Dfa,1027,-263.1196683,-650.348139,387.2284707,9.320215088,10.52969109,0.880711625,10.20397413,0.260549767,0.462824752,1.095055957,1.109078928,29,-0.002164303,0.931360705,0.016782262,0.485606276,3.051355267,3.167765522,2.563150215,1.632014608,1.363516617,1.594871902,2.22725296,2.421904564,2.017288971,2.043296814,2.090915632,2.527985144,0,0,0,0,0,0
48,US-KM4,42.4423,-85.3301,246.3,GRA,Dfa,1027,-6.013849094,-527.2991009,521.2852518,9.198884433,10.44266836,0.969532712,10.70435516,0.297590963,0.480400747,1.200179167,1.118328526,370,0.010998726,0.501927269,0.023966963,0.117426704,3.013040447,3.140219593,2.538974476,1.576923084,1.341611671,1.599120712,2.242344284,2.452234077,2.056044006,2.035531044,2.003223372,2.443003511,0,0,0,0,0,0
28,US-Kon,39.0824,-96.5603,417,GRA,Cfa,867,-167.4031012,-686.2682585,518.8651573,12.97245411,10.78846039,1.113310635,11.96747164,0.291339014,0.464675109,1.120332142,0.895653983,55,-0.077028501,0.000323305,-0.02006161,0.173966822,1.557509136,2.863150311,1.887545753,1.774945259,1.971502113,1.955384064,2.60029335,3.239632797,2.719339943,3.228351498,2.13904767,2.174871874,0,0,0,0,0,0
43,US-LL1,31.2792,-84.5329,165,SAV,Cfa,1310,-203.9650578,-874.3477007,670.3826429,19.41596748,6.815460414,0.63693578,10.01652579,0.370377385,0.699037712,1.878460077,1.563649503,20,-0.006491554,0.490264653,0.01210904,0.143552061,1.580219746,1.179853439,1.39641037,1.000732994,1.506591797,1.252526855,1.704176331,1.44263649,1.773699951,1.517875481,2.462491131,1.501465321,0,0,0,0,0,0
8,US-Los,46.0827,-89.9792,480,WET,Dfb,828,-117.433639,-385.0218749,267.5882359,5.365222819,11.30207975,1.015702743,11.15129048,0.286608488,0.508468293,1.778806469,1.226050602,122.7002151,0.019450322,0.110001713,0.024822056,0.034348182,2.401172066,4.541025543,3.037802124,2.005714297,2.155091667,1.795604134,2.269890213,2.843956184,2.021391869,2.441391945,1.704688644,2.884322357,0,0,0,0,0,0
49,US-MBP,47.5051,-93.4893,416,WET,Dfb,780,-235.3531787,-301.1511057,65.79792695,4.245124638,12.55251,1.240341758,11.37204774,0.284089004,0.50153169,1.874804349,1.135360107,29,0.006689029,0.850745549,0.028622591,0.403768378,2.340658569,4.799487305,3.332967186,2.462490845,2.895091391,2.48476181,2.845274925,3.3139925,2.061172199,2.871868086,1.839047575,2.797142601,0,0,0,0,0,0
15,US-Me2,44.4526,-121.5589,1253,ENF,Csb,523,-352.5980349,-794.3348432,441.7368083,7.96091504,7.898648919,0.597719395,7.78935666,0.307782037,0.613216335,1.928813778,1.22255615,61.17514528,-0.03199108,0.016860025,-0.0277359,0.034345696,1.333479881,1.965348005,1.663003731,1.312673998,0.944395542,1.314578724,1.747326088,2.191941452,1.916776514,1.654432225,2.138095284,1.686080647,0,0,0,0,0,0
19,US-MMS,39.3232,-86.4131,275,DBF,Cfa,1032,-362.7210847,-767.5449197,404.823835,12.47997252,9.991221544,0.722759137,7.963661222,0.397461544,0.65872374,2.355353417,1.549824708,35,-0.025485204,0.010779013,-0.010564903,0.179311536,2.07956028,2.273040342,1.799560428,0.832820606,1.019853592,1.565494537,2.52761879,2.366886902,2.044688988,1.792381001,2.306446934,2.035970736,0,0,0,0,0,0
29,US-MOz,38.7441,-92.2,219.4,DBF,Cfa,986,-351.7837805,-764.2644665,412.480686,13.60136774,10.36737614,1.020989786,9.676229457,0.374392751,0.650998563,2.501680664,1.501456763,45,-0.006025073,0.737359071,0.055228511,4.72E-05,1.525934124,2.577655649,1.913992715,1.281098938,1.387985611,1.670842743,2.497216797,2.723369598,2.360147285,2.579560375,2.086446857,1.992747283,0,0,0,0,0,0
42,US-MtB,32.416,-110.7256,2573,ENF,Csb,790,-509.163275,-742.9229988,233.7597238,9.842771843,6.890193328,0.411235262,5.565165781,0.286181942,0.540026465,1.478628417,0.710326835,5,-0.050094879,0.001298671,-0.024424344,0.118026061,0.608131874,0.969523823,0.217728901,0.408424854,1.100952339,0.848204994,1.220585823,1.544322395,1.612454414,1.96564064,0.885567808,0.879926777,0,0,0,0,0,0
50,US-Myb,38.0499,-121.765,-4,WET,Csa,338,-345.4191716,-730.62308,385.2039084,15.52827012,5.341119043,0.545486702,10.32626129,0.344865318,0.571750549,1.545986834,1.632380504,29,-0.010970499,0.821069723,0.022012528,0.657049503,1.150036621,1.520732689,0.943882942,0.819633675,0.947692299,0.900952148,1.289230919,1.555457687,1.769084358,1.863809586,1.38974371,0.826080656,0,0,0,0,0,0
30,US-NC2,35.803,-76.6685,5,ENF,Cfa,1320,-384.9087588,-1172.554711,787.6459522,16.09107111,7.991469304,0.432484858,10.28083082,0.408015095,0.736809985,4.327428587,1.770790858,134,-0.017785064,0.064677959,0.000944416,0.933248448,1.751135468,1.370769191,1.585567951,0.938827896,1.022929764,0.996483612,1.71157608,1.469962311,1.821685028,1.316849709,2.407399368,1.613186789,0,0,0,0,0,0
51,US-NC4,35.7879,-75.9038,1,WET,Cfa,1311,44.3801798,-771.2645314,815.6447112,17.03805014,7.827075402,0.64665654,7.710634506,0.355342464,0.712813163,2.150375785,1.945448321,250,0.095875041,0.000124236,0.089410852,0.00058645,1.608058453,1.394651985,1.590989017,1.049597359,0.798461342,0.775970459,1.537947845,1.221904373,1.576629639,1.200512886,2.233040428,1.666300297,0,0,0,0,0,0
16,US-NR1,40.0329,-105.5464,3050,ENF,Dfc,800,-196.9782316,-441.8158234,244.8375918,2.380399544,8.796522907,0.529362658,7.419980278,0.260572978,0.513702303,1.289488567,0.916444571,41,-0.037073445,0.001904037,0.02139389,0.063173326,1.788498116,3.006154251,2.383882713,2.324175739,2.553846216,2.575824213,2.194651985,2.786739969,2.549157524,3.15868125,2.47501812,2.541977882,0,0,0,0,0,0
54,US-Oho,41.5545,-83.8438,230,DBF,Dfa,849,-783.1932372,-1156.016379,372.8231422,10.50362975,10.21148895,0.838409997,8.987854462,0.347107241,0.589715782,2.292612784,1.517473154,81.170762,0.016943481,0.121958428,0.039100506,0.004723733,3.036043739,3.057142735,2.564029264,1.421172285,1.331868172,1.682124329,2.337729645,2.51655674,2.159853363,2.056850052,2.361098909,2.638827848,0,0,0,0,0,0
20,US-PFa,45.9459,-90.2723,470,MF,Dfb,823,5.430551461,-312.9111045,318.3416559,5.756271476,11.52641834,1.240422614,8.678694663,0.318687833,0.57165196,1.855200534,1.19569368,133.3623104,-0.018847387,0.086184236,0.009433945,0.510224797,2.401171875,4.325201607,3.023955822,2.01509161,2.090989017,1.805494499,2.272454453,2.825567627,2.027839088,2.496410561,1.766666555,2.854871559,0,0,0,0,0,0
107,US-Rls,43.1439,-116.7356,1608,CSH,Bsh,333,-133.4300568,-343.1519975,209.7219407,8.632196319,9.626796909,0.712063552,8.589709703,0.121030573,0.2430835,0.297088581,0.31716564,16,-0.048748642,0.004219899,-0.015170339,0.201935815,2.147765493,2.875897408,2.007765627,1.522930384,1.414432192,1.892820644,1.907619286,2.701978111,2.457948589,1.949963355,2.189010954,2.073406553,0,0,0,0,0,0
47,US-Ro4,44.6781,-93.0723,274,GRA,Dfa,879,-293.9898576,-568.9146361,274.9247784,7.601755691,11.9786687,1.495797157,11.51007716,0.258736246,0.412654827,1.057472189,0.95768717,87,-0.01696897,0.301213374,-0.013287498,0.351527854,2.264468193,4.330769157,3.002490997,1.816703224,1.905640793,1.680879593,2.1746521,2.776702881,2.063589478,2.244615364,1.462857175,2.251575279,0,0,0,0,0,0
108,US-Rws,43.1675,-116.7132,1425,OSH,Bsk,290,-84.90146763,-225.5541904,140.6527228,9.686348468,9.72011228,0.662441672,9.340062721,0.104330329,0.208196061,0.217384287,0.232880044,14,-0.034135166,0.018096267,0.000721351,0.940539473,2.155750847,2.907692337,2.018021917,1.55274725,1.394871664,1.930256176,1.958901024,2.720439529,2.481538296,2.012747216,2.223955965,2.102490759,0,0,0,0,0,0
55,US-Slt,39.9138,-74.596,30,DBF,Dfa,1138,18.42646551,-542.6470432,561.0735087,12.34155473,9.354407665,0.690651922,10.76633312,0.367755213,0.669821001,2.413414359,1.811010277,67.65037873,-0.007620106,0.813461763,0.035782847,0.167697667,2.464249039,2.286153889,2.071428537,1.451868057,1.426593399,1.396557236,1.809157181,1.932307434,1.855751228,1.354652023,2.199121046,2.196410227,0,0,0,0,0,0
26,US-SRG,31.7894,-110.8277,1291,GRA,Bsk,420,-36.87851754,-226.2165858,189.3380683,18.99026639,7.188866436,0.535970303,11.79684868,0.171173771,0.283310399,0.428213065,0.416332845,25,-0.091833351,1.57E-08,-0.002891043,0.734446619,0.686959815,0.926886344,0.263369942,0.501025772,1.107472229,0.951355171,1.24871788,1.573479271,1.75684967,1.975238037,1.049304104,0.850402951,0,0,0,0,0,0
10,US-SRM,31.8214,-110.8661,1120,WSA,Bsk,380,2.03561792,-123.1262101,125.161828,19.29130157,7.328108599,0.57786819,12.31917873,0.156863849,0.264012355,0.38618014,0.364387016,68.53139129,-0.135618118,9.74E-11,-0.029322234,0.086318725,0.647472572,0.923150158,0.264981651,0.449450684,1.082563972,0.926374054,1.247472763,1.549523163,1.720659256,1.994285774,1.026153851,0.827765656,0,0,0,0,0,0
21,US-Syv,46.242,-89.3477,540,MF,Dfb,826,-137.4483863,-555.9874073,418.539021,4.596079175,11.59540273,0.997032233,8.021765063,0.269013311,0.526037184,1.866489208,1.186385045,136.0914913,-0.026726588,0.260852703,0.011994328,0.574275846,2.445495033,4.150329399,2.955311584,1.97245419,2.068205214,1.721465111,2.16102581,2.574432182,1.747912216,2.266813087,1.687838745,2.86717968,0,0,0,0,0,0
7,US-Ton,38.4309,-120.966,177,WSA,Csa,559,-84.61296201,-506.9859147,422.3729527,16.5282454,6.73374212,0.613127177,11.71376041,0.242400506,0.460178901,1.033990916,0.993069105,36,-0.024298394,0.015636379,0.010739876,0.165628952,1.115750837,1.607985306,0.906520176,0.598901176,0.870256615,0.872527504,1.26776619,1.614725876,1.693699837,1.864395332,1.319413948,0.797948837,0,0,0,0,0,0
52,US-Tw1,38.1074,-121.6469,-5,WET,Csa,421,-293.5906741,-813.6846906,520.0940165,14.97899791,5.749033788,0.784274591,13.83150879,0.289151882,0.503075661,0.799678856,1.184036319,231,0.00512139,0.924075945,0.013277193,0.843750627,1.134798336,1.478095341,0.949816799,0.756849861,0.916337013,0.899560356,1.32307682,1.555384445,1.718388367,1.846520233,1.396703339,0.752600813,0,0,0,0,0,0
1,US-Uaf,64.8663,-147.8555,155,ENF,Dwc,263,-82.40987858,-227.6169823,145.2071037,-2.982425133,15.16822482,0.764873017,11.89887595,0.138765741,0.305327436,0.670178302,0.629977961,92,-0.000450947,0.981224987,0.014684737,0.490151881,2.971428299,1.113186646,3.577655792,2.073479939,1.638754511,1.795311356,2.078754425,2.260366344,1.970109892,1.008205223,3.169376373,2.386886215,0,0,0,0,0,0
18,US-UMB,45.5598,-84.7138,234,DBF,Dfb,803,-222.0701584,-652.2238179,430.1536595,7.146668061,10.58143848,0.944869919,7.382990387,0.324729546,0.5162724,2.128865931,1.686181183,80.23832177,-0.004301181,0.62682909,0.019392515,0.063310638,3.666007614,3.806007195,3.227326059,2.2810256,1.726080608,1.686519814,2.195310974,2.42630024,2.09706955,2.399853563,2.008717918,3.481538534,0,0,0,0,0,0
6,US-Var,38.4133,-120.9508,129,GRA,Csa,559,1.649066579,-263.3390955,264.9881621,16.05593753,6.716035654,0.620708747,14.50050425,0.272531468,0.475748382,1.074555568,0.98014376,42,-0.114055046,1.40E-06,0.019718544,0.180610818,1.117728901,1.569084263,0.887252712,0.606666946,0.828278351,0.856629944,1.259341431,1.603004456,1.656703377,1.893186378,1.30761919,0.798974466,0,0,0,0,0,0
17,US-WCr,45.8059,-90.0799,520,DBF,Dfb,787,-279.4498798,-615.7618018,336.3119219,5.253207019,11.61621686,0.905934512,8.522157173,0.314963572,0.509575197,1.875118238,1.160576974,133.3623104,0.01767571,0.296160219,0.045628831,0.002099594,2.35772953,4.256263924,2.995311546,2.000659323,1.989450455,1.649084091,2.19516449,2.738461685,2.069597149,2.387326002,1.804249001,2.916263771,0,0,0,0,0,0
22,US-Whs,31.7438,-110.0522,1370,OSH,Bsk,320,15.99640701,-28.9958353,44.99224231,17.14865772,7.390926258,0.442867116,15.07800401,0.116940294,0.197097685,0.253273051,0.264389196,7,-0.174206711,0.001068287,0.000804865,0.987828714,0.490842438,0.680659342,0.055384827,0.207252502,0.934505844,0.698461533,1.016483688,1.203003693,1.456410599,1.717949104,0.877142906,0.706446886,0,0,0,0,0,0
9,US-Wkg,31.7365,-109.9419,1531,GRA,Bsk,407,-35.43613377,-111.1105641,75.67443036,17.51108583,7.056447243,0.545548007,10.31767924,0.130699385,0.217351349,0.292958323,0.30991543,65.19973455,-0.175887343,0.00285165,-0.004592797,0.894778388,0.413772845,0.705274773,0.093260002,0.203003502,0.92754612,0.642343521,1.002930069,1.216776657,1.392967224,1.697069359,0.821684933,0.616337013,0,0,0,0,0,0
56,US-Wrc,45.8205,-121.9519,371,ENF,Csb,2452,-290.6447683,-488.5045736,197.8598053,9.19377554,7.204713761,0.778607021,8.80484451,0.357653456,0.775579843,2.362630575,1.441205488,100.6444175,0.018239162,0.331618364,0.037325379,0.026078508,1.233553147,2.01311357,1.667399263,1.329597092,1.053846264,1.447912312,1.83472538,2.167985344,1.921099091,1.5054214,2.14205122,1.786813188,0,0,0,0,0,0
76,ZA-Kru,-25.0197,31.4969,359,SAV,Bsh,547,24.56452799,-460.0679193,484.6324473,21.90767249,3.22304914,0.620008004,10.9047387,0.270693112,0.456128619,1.013002659,1.229694056,46.12785339,-0.172341341,0.000817539,-0.029389301,0.267234478,1.40608139,1.219633865,1.597142792,1.041757202,1.385787582,0.843150139,1.544102573,1.01399231,1.674066162,1.476045227,1.264688492,1.185641098,0,0,0,0,0,0